{"source":"MLIT KSJ S12-24 UTF-8/S12-24_NumberOfPassengers.geojson","generatedAt":"2026-02-18","items":[{"name":"二月田","operator":"九州旅客鉄道","line":"指宿枕崎線","lat":31.25432,"lng":130.6301,"yearly":{"2018":658,"2019":690,"2020":318,"2021":305,"2022":622,"2023":664}},{"name":"古島","operator":"沖縄都市モノレール","line":"沖縄都市モノレール線","lat":26.23064,"lng":127.70294,"yearly":{"2018":5086,"2019":5143,"2020":3404,"2021":3534,"2022":4401,"2023":4903}},{"name":"お台場海浜公園","operator":"ゆりかもめ","line":"東京臨海新交通臨海線","lat":35.629805000000005,"lng":139.77853,"yearly":{"2018":17165,"2019":16899,"2020":7703,"2021":8535,"2022":11171,"2023":13195}},{"name":"東京国際クルーズターミナル","operator":"ゆりかもめ","line":"東京臨海新交通臨海線","lat":35.62135744628905,"lng":139.77310318066412,"yearly":{"2018":3551,"2019":3191,"2020":1383,"2021":1984,"2022":2300,"2023":2963}},{"name":"テレコムセンター","operator":"ゆりかもめ","line":"東京臨海新交通臨海線","lat":35.617725,"lng":139.77966500000002,"yearly":{"2018":13475,"2019":12140,"2020":6536,"2021":7631,"2022":8118,"2023":8505}},{"name":"汐留","operator":"ゆりかもめ","line":"東京臨海新交通臨海線","lat":35.662985,"lng":139.760075,"yearly":{"2018":9562,"2019":8755,"2020":3289,"2021":4056,"2022":5650,"2023":7463}},{"name":"台場","operator":"ゆりかもめ","line":"東京臨海新交通臨海線","lat":35.625870000000006,"lng":139.77137499999998,"yearly":{"2018":24687,"2019":21421,"2020":5967,"2021":8143,"2022":14135,"2023":20606}},{"name":"有明","operator":"ゆりかもめ","line":"東京臨海新交通臨海線","lat":35.63455,"lng":139.79334,"yearly":{"2018":5781,"2019":5818,"2020":3786,"2021":5256,"2022":7669,"2023":9242}},{"name":"東京ビッグサイト","operator":"ゆりかもめ","line":"東京臨海新交通臨海線","lat":35.63021,"lng":139.7913,"yearly":{"2018":20530,"2019":16690,"2020":4941,"2021":7671,"2022":13876,"2023":19352}},{"name":"新橋","operator":"ゆりかもめ","line":"東京臨海新交通臨海線","lat":35.66558333333333,"lng":139.75958666666668,"yearly":{"2018":68180,"2019":63123,"2020":24320,"2021":31169,"2022":44343,"2023":56027}},{"name":"竹芝","operator":"ゆりかもめ","line":"東京臨海新交通臨海線","lat":35.654065,"lng":139.762015,"yearly":{"2018":4924,"2019":4508,"2020":2251,"2021":3018,"2022":4126,"2023":4833}},{"name":"芝浦ふ頭","operator":"ゆりかもめ","line":"東京臨海新交通臨海線","lat":35.64222,"lng":139.75787,"yearly":{"2018":5232,"2019":5090,"2020":3425,"2021":3756,"2022":4313,"2023":4907}},{"name":"日の出","operator":"ゆりかもめ","line":"東京臨海新交通臨海線","lat":35.64926,"lng":139.75916,"yearly":{"2018":2425,"2019":2322,"2020":1251,"2021":1584,"2022":2015,"2023":2404}},{"name":"青海","operator":"ゆりかもめ","line":"東京臨海新交通臨海線","lat":35.6248,"lng":139.781315,"yearly":{"2018":8995,"2019":11884,"2020":2102,"2021":3648,"2022":1707,"2023":1483}},{"name":"新豊洲","operator":"ゆりかもめ","line":"東京臨海新交通臨海線","lat":35.64871,"lng":139.79011500000001,"yearly":{"2018":6642,"2019":6796,"2020":2461,"2021":3519,"2022":7144,"2023":11256}},{"name":"市場前","operator":"ゆりかもめ","line":"東京臨海新交通臨海線","lat":35.64569,"lng":139.78565,"yearly":{"2018":7902,"2019":11393,"2020":6193,"2021":7302,"2022":11285,"2023":13997}},{"name":"有明テニスの森","operator":"ゆりかもめ","line":"東京臨海新交通臨海線","lat":35.63998,"lng":139.788895,"yearly":{"2018":4164,"2019":5022,"2020":3775,"2021":4833,"2022":6351,"2023":8148}},{"name":"豊洲","operator":"ゆりかもめ","line":"東京臨海新交通臨海線","lat":35.653705,"lng":139.795435,"yearly":{"2018":28199,"2019":28916,"2020":15723,"2021":19824,"2022":27545,"2023":33957}},{"name":"新石切","operator":"近畿日本鉄道","line":"けいはんな線","lat":34.680096666666664,"lng":135.64109666666667,"yearly":{"2018":18240,"2019":18240,"2020":14556,"2021":16187,"2022":17109,"2023":17153}},{"name":"長田","operator":"近畿日本鉄道","line":"けいはんな線","lat":34.678754999999995,"lng":135.591965,"yearly":{"2018":0,"2019":0,"2020":0,"2021":0,"2022":0,"2023":0}},{"name":"吉田","operator":"近畿日本鉄道","line":"けいはんな線","lat":34.680335,"lng":135.624515,"yearly":{"2018":15369,"2019":15369,"2020":12609,"2021":14389,"2022":15015,"2023":14949}},{"name":"荒本","operator":"近畿日本鉄道","line":"けいはんな線","lat":34.678625,"lng":135.60499,"yearly":{"2018":16277,"2019":16277,"2020":13530,"2021":14024,"2022":14360,"2023":14440}},{"name":"生駒","operator":"近畿日本鉄道","line":"けいはんな線","lat":34.6931,"lng":135.698055,"yearly":{"2018":0,"2019":0,"2020":0,"2021":0,"2022":0,"2023":0}},{"name":"学研奈良登美ヶ丘","operator":"近畿日本鉄道","line":"けいはんな線","lat":34.726385,"lng":135.74916000000002,"yearly":{"2018":14165,"2019":14165,"2020":11077,"2021":12410,"2022":13330,"2023":13653}},{"name":"白庭台","operator":"近畿日本鉄道","line":"けいはんな線","lat":34.72103,"lng":135.71683000000002,"yearly":{"2018":9339,"2019":9339,"2020":7793,"2021":8528,"2022":8775,"2023":9022}},{"name":"学研北生駒","operator":"近畿日本鉄道","line":"けいはんな線","lat":34.724845,"lng":135.72342,"yearly":{"2018":6419,"2019":6419,"2020":5060,"2021":5463,"2022":5618,"2023":5848}},{"name":"ポートターミナル","operator":"神戸新交通","line":"ポートアイランド線","lat":34.681455,"lng":135.20222,"yearly":{"2018":828,"2019":835,"2020":521,"2021":523,"2022":595,"2023":739}},{"name":"中埠頭","operator":"神戸新交通","line":"ポートアイランド線","lat":34.669285,"lng":135.21717,"yearly":{"2018":3269,"2019":3215,"2020":2152,"2021":2211,"2022":2447,"2023":2506}},{"name":"市民広場","operator":"神戸新交通","line":"ポートアイランド線","lat":34.664905000000005,"lng":135.21244,"yearly":{"2018":15979,"2019":14859,"2020":7271,"2021":8234,"2022":11557,"2023":11886}},{"name":"貿易センター","operator":"神戸新交通","line":"ポートアイランド線","lat":34.689365,"lng":135.19946,"yearly":{"2018":3437,"2019":3515,"2020":2515,"2021":2782,"2022":3158,"2023":3353}},{"name":"三宮","operator":"神戸新交通","line":"ポートアイランド線","lat":34.694509999999994,"lng":135.195295,"yearly":{"2018":74974,"2019":73323,"2020":45737,"2021":52486,"2022":62244,"2023":66406}},{"name":"北埠頭","operator":"神戸新交通","line":"ポートアイランド線","lat":34.673564999999996,"lng":135.21451,"yearly":{"2018":1837,"2019":1648,"2020":1607,"2021":1701,"2022":1853,"2023":2117}},{"name":"南公園","operator":"神戸新交通","line":"ポートアイランド線","lat":34.66467,"lng":135.21706999999998,"yearly":{"2018":5193,"2019":5299,"2020":3960,"2021":4226,"2022":4633,"2023":4687}},{"name":"みなとじま","operator":"神戸新交通","line":"ポートアイランド線","lat":34.669065,"lng":135.209995,"yearly":{"2018":16841,"2019":16121,"2020":9298,"2021":11996,"2022":13341,"2023":14037}},{"name":"中公園","operator":"神戸新交通","line":"ポートアイランド線","lat":34.673095,"lng":135.20752,"yearly":{"2018":7909,"2019":8262,"2020":5303,"2021":5970,"2022":6642,"2023":7566}},{"name":"医療センター","operator":"神戸新交通","line":"ポートアイランド線","lat":34.658519999999996,"lng":135.21641,"yearly":{"2018":15150,"2019":15029,"2020":11965,"2021":12621,"2022":12507,"2023":13363}},{"name":"計算科学センター","operator":"神戸新交通","line":"ポートアイランド線","lat":34.65481,"lng":135.22153500000002,"yearly":{"2018":4341,"2019":4535,"2020":2801,"2021":3492,"2022":4639,"2023":5498}},{"name":"神戸空港","operator":"神戸新交通","line":"ポートアイランド線","lat":34.63735,"lng":135.228975,"yearly":{"2018":7144,"2019":7095,"2020":3007,"2021":4058,"2022":6936,"2023":7260}},{"name":"岩瀬浜","operator":"富山地方鉄道","line":"富山港線","lat":36.761269999999996,"lng":137.23411,"yearly":{"2018":248,"2019":691,"2020":483,"2021":483,"2022":748,"2023":487}},{"name":"競輪場前","operator":"富山地方鉄道","line":"富山港線","lat":36.75749,"lng":137.233945,"yearly":{"2018":198,"2019":168,"2020":367,"2021":367,"2022":296,"2023":139}},{"name":"東岩瀬","operator":"富山地方鉄道","line":"富山港線","lat":36.751945,"lng":137.230505,"yearly":{"2018":159,"2019":363,"2020":256,"2021":256,"2022":447,"2023":371}},{"name":"インテック本社前","operator":"富山地方鉄道","line":"富山港線","lat":36.703625,"lng":137.21641499999998,"yearly":{"2018":360,"2019":321,"2020":348,"2021":273,"2022":273,"2023":464}},{"name":"萩浦小学校前","operator":"富山地方鉄道","line":"富山港線","lat":36.74803981246015,"lng":137.2283632022532,"yearly":{"2018":159,"2019":384,"2020":252,"2021":252,"2022":298,"2023":434}},{"name":"蓮町（馬場記念公園前）","operator":"富山地方鉄道","line":"富山港線","lat":36.742215,"lng":137.22759000000002,"yearly":{"2018":523,"2019":1074,"2020":987,"2021":987,"2022":1089,"2023":1147}},{"name":"犬島新町","operator":"富山地方鉄道","line":"富山港線","lat":36.735095,"lng":137.22663,"yearly":{"2018":146,"2019":341,"2020":302,"2021":302,"2022":318,"2023":267}},{"name":"城川原","operator":"富山地方鉄道","line":"富山港線","lat":36.73113,"lng":137.22609999999997,"yearly":{"2018":363,"2019":675,"2020":660,"2021":660,"2022":603,"2023":666}},{"name":"越中中島","operator":"富山地方鉄道","line":"富山港線","lat":36.722195,"lng":137.224895,"yearly":{"2018":199,"2019":381,"2020":444,"2021":444,"2022":436,"2023":445}},{"name":"粟島（大阪屋ショップ前）","operator":"富山地方鉄道","line":"富山港線","lat":36.719145,"lng":137.22482000000002,"yearly":{"2018":340,"2019":618,"2020":633,"2021":633,"2022":593,"2023":633}},{"name":"下奥井","operator":"富山地方鉄道","line":"富山港線","lat":36.711920000000006,"lng":137.22458999999998,"yearly":{"2018":241,"2019":414,"2020":434,"2021":434,"2022":455,"2023":488}},{"name":"奥田中学校前","operator":"富山地方鉄道","line":"富山港線","lat":36.70357,"lng":137.22360500000002,"yearly":{"2018":436,"2019":366,"2020":439,"2021":350,"2022":396,"2023":555}},{"name":"富山駅","operator":"富山地方鉄道","line":"富山港線","lat":36.70175475423656,"lng":137.21299668756862,"yearly":{"2018":3122,"2019":3198,"2020":2282,"2021":2324,"2022":2666,"2023":947}},{"name":"盛岡","operator":"アイジーアールいわて銀河鉄道","line":"いわて銀河鉄道線","lat":39.701195,"lng":141.136375,"yearly":{"2018":11593,"2019":11290,"2020":9600,"2021":9448,"2022":9768,"2023":9974}},{"name":"御堂","operator":"アイジーアールいわて銀河鉄道","line":"いわて銀河鉄道線","lat":40.00436,"lng":141.23705,"yearly":{"2018":48,"2019":58,"2020":49,"2021":56,"2022":42,"2023":40}},{"name":"二戸","operator":"アイジーアールいわて銀河鉄道","line":"いわて銀河鉄道線","lat":40.25983,"lng":141.28598499999998,"yearly":{"2018":721,"2019":694,"2020":550,"2021":586,"2022":590,"2023":591}},{"name":"小鳥谷","operator":"アイジーアールいわて銀河鉄道","line":"いわて銀河鉄道線","lat":40.17111666666667,"lng":141.30773666666664,"yearly":{"2018":100,"2019":98,"2020":76,"2021":73,"2022":80,"2023":78}},{"name":"渋民","operator":"アイジーアールいわて銀河鉄道","line":"いわて銀河鉄道線","lat":39.834745,"lng":141.15422999999998,"yearly":{"2018":715,"2019":659,"2020":558,"2021":539,"2022":542,"2023":570}},{"name":"斗米","operator":"アイジーアールいわて銀河鉄道","line":"いわて銀河鉄道線","lat":40.285606666666666,"lng":141.29091333333335,"yearly":{"2018":151,"2019":136,"2020":140,"2021":141,"2022":167,"2023":176}},{"name":"いわて沼宮内","operator":"アイジーアールいわて銀河鉄道","line":"いわて銀河鉄道線","lat":39.960589999999996,"lng":141.21707500000002,"yearly":{"2018":869,"2019":850,"2020":727,"2021":724,"2022":713,"2023":717}},{"name":"厨川","operator":"アイジーアールいわて銀河鉄道","line":"いわて銀河鉄道線","lat":39.74408,"lng":141.12886,"yearly":{"2018":3209,"2019":3111,"2020":2806,"2021":2747,"2022":2888,"2023":2987}},{"name":"岩手川口","operator":"アイジーアールいわて銀河鉄道","line":"いわて銀河鉄道線","lat":39.91931333333334,"lng":141.19937333333334,"yearly":{"2018":298,"2019":269,"2020":247,"2021":228,"2022":230,"2023":204}},{"name":"一戸","operator":"アイジーアールいわて銀河鉄道","line":"いわて銀河鉄道線","lat":40.210374,"lng":141.297388,"yearly":{"2018":570,"2019":543,"2020":483,"2021":482,"2022":447,"2023":448}},{"name":"金田一温泉","operator":"アイジーアールいわて銀河鉄道","line":"いわて銀河鉄道線","lat":40.3230975,"lng":141.3038325,"yearly":{"2018":200,"2019":205,"2020":193,"2021":185,"2022":176,"2023":168}},{"name":"滝沢","operator":"アイジーアールいわて銀河鉄道","line":"いわて銀河鉄道線","lat":39.799,"lng":141.149555,"yearly":{"2018":3162,"2019":3044,"2020":2533,"2021":2592,"2022":2640,"2023":2559}},{"name":"小繋","operator":"アイジーアールいわて銀河鉄道","line":"いわて銀河鉄道線","lat":40.123104999999995,"lng":141.26042,"yearly":{"2018":10,"2019":7,"2020":7,"2021":8,"2022":5,"2023":5}},{"name":"奥中山高原","operator":"アイジーアールいわて銀河鉄道","line":"いわて銀河鉄道線","lat":40.066155,"lng":141.2285,"yearly":{"2018":365,"2019":329,"2020":304,"2021":295,"2022":279,"2023":287}},{"name":"目時","operator":"アイジーアールいわて銀河鉄道","line":"いわて銀河鉄道線","lat":40.352050000000006,"lng":141.289575,"yearly":{"2018":0,"2019":0,"2020":0,"2021":0,"2022":0,"2023":0}},{"name":"好摩","operator":"アイジーアールいわて銀河鉄道","line":"いわて銀河鉄道線","lat":39.87416,"lng":141.173675,"yearly":{"2018":1891,"2019":1764,"2020":1401,"2021":1415,"2022":1431,"2023":1453}},{"name":"青山","operator":"アイジーアールいわて銀河鉄道","line":"いわて銀河鉄道線","lat":39.72465333333333,"lng":141.11829666666668,"yearly":{"2018":3449,"2019":3375,"2020":2979,"2021":3009,"2022":3116,"2023":3195}},{"name":"巣子","operator":"アイジーアールいわて銀河鉄道","line":"いわて銀河鉄道線","lat":39.783426666666664,"lng":141.14864666666668,"yearly":{"2018":991,"2019":1001,"2020":854,"2021":849,"2022":892,"2023":943}},{"name":"上総中野","operator":"いすみ鉄道","line":"いすみ線","lat":35.25004,"lng":140.199595,"yearly":{"2018":123,"2019":0,"2020":0,"2021":0,"2022":0,"2023":0}},{"name":"大多喜","operator":"いすみ鉄道","line":"いすみ線","lat":35.286535,"lng":140.24383999999998,"yearly":{"2018":253,"2019":226,"2020":171,"2021":195,"2022":208,"2023":146}},{"name":"東総元","operator":"いすみ鉄道","line":"いすみ線","lat":35.259445,"lng":140.24763,"yearly":{"2018":3,"2019":3,"2020":3,"2021":3,"2022":3,"2023":22}},{"name":"上総中川","operator":"いすみ鉄道","line":"いすみ線","lat":35.282705,"lng":140.28055999999998,"yearly":{"2018":10,"2019":12,"2020":12,"2021":10,"2022":13,"2023":13}},{"name":"国吉","operator":"いすみ鉄道","line":"いすみ線","lat":35.280424999999994,"lng":140.31399,"yearly":{"2018":132,"2019":95,"2020":69,"2021":73,"2022":77,"2023":60}},{"name":"久我原","operator":"いすみ鉄道","line":"いすみ線","lat":35.25022,"lng":140.24766499999998,"yearly":{"2018":3,"2019":6,"2020":6,"2021":9,"2022":6,"2023":2}},{"name":"上総東","operator":"いすみ鉄道","line":"いすみ線","lat":35.26329,"lng":140.344905,"yearly":{"2018":30,"2019":28,"2020":21,"2021":24,"2022":28,"2023":42}},{"name":"西畑","operator":"いすみ鉄道","line":"いすみ線","lat":35.250526666666666,"lng":140.21517666666668,"yearly":{"2018":5,"2019":7,"2020":3,"2021":4,"2022":5,"2023":2}},{"name":"小谷松","operator":"いすみ鉄道","line":"いすみ線","lat":35.268975,"lng":140.25104,"yearly":{"2018":3,"2019":3,"2020":4,"2021":4,"2022":9,"2023":6}},{"name":"総元","operator":"いすみ鉄道","line":"いすみ線","lat":35.24057,"lng":140.24036,"yearly":{"2018":5,"2019":7,"2020":7,"2021":11,"2022":11,"2023":8}},{"name":"西大原","operator":"いすみ鉄道","line":"いすみ線","lat":35.260515,"lng":140.377975,"yearly":{"2018":13,"2019":11,"2020":12,"2021":13,"2022":19,"2023":16}},{"name":"新田野","operator":"いすみ鉄道","line":"いすみ線","lat":35.27599,"lng":140.328525,"yearly":{"2018":17,"2019":14,"2020":8,"2021":6,"2022":10,"2023":13}},{"name":"大原","operator":"いすみ鉄道","line":"いすみ線","lat":35.25084666666667,"lng":140.39103333333333,"yearly":{"2018":323,"2019":281,"2020":219,"2021":249,"2022":275,"2023":208}},{"name":"西長田ゆりの里","operator":"えちぜん鉄道","line":"三国芦原線","lat":36.15358500000001,"lng":136.206495,"yearly":{"2018":328,"2019":328,"2020":260,"2021":137,"2022":162,"2023":162}},{"name":"鷲塚針原","operator":"えちぜん鉄道","line":"三国芦原線","lat":36.120239999999995,"lng":136.20481,"yearly":{"2018":293,"2019":277,"2020":232,"2021":147,"2022":158,"2023":158}},{"name":"西別院","operator":"えちぜん鉄道","line":"三国芦原線","lat":36.075255,"lng":136.22298999999998,"yearly":{"2018":324,"2019":295,"2020":245,"2021":155,"2022":170,"2023":170}},{"name":"中角","operator":"えちぜん鉄道","line":"三国芦原線","lat":36.101119999999995,"lng":136.204445,"yearly":{"2018":82,"2019":78,"2020":66,"2021":36,"2022":30,"2023":30}},{"name":"新田塚","operator":"えちぜん鉄道","line":"三国芦原線","lat":36.092575,"lng":136.20528000000002,"yearly":{"2018":550,"2019":519,"2020":449,"2021":257,"2022":296,"2023":296}},{"name":"番田","operator":"えちぜん鉄道","line":"三国芦原線","lat":36.21253,"lng":136.20252,"yearly":{"2018":31,"2019":28,"2020":28,"2021":14,"2022":12,"2023":12}},{"name":"福井口","operator":"えちぜん鉄道","line":"三国芦原線","lat":36.070147670222326,"lng":136.23290437555744,"yearly":{"2018":512,"2019":469,"2020":375,"2021":194,"2022":231,"2023":231}},{"name":"三国","operator":"えちぜん鉄道","line":"三国芦原線","lat":36.21692,"lng":136.14995,"yearly":{"2018":707,"2019":692,"2020":517,"2021":294,"2022":312,"2023":312}},{"name":"太郎丸エンゼルランド","operator":"えちぜん鉄道","line":"三国芦原線","lat":36.131335,"lng":136.20569,"yearly":{"2018":316,"2019":308,"2020":251,"2021":137,"2022":145,"2023":145}},{"name":"福大前西福井","operator":"えちぜん鉄道","line":"三国芦原線","lat":36.074405,"lng":136.21013,"yearly":{"2018":2072,"2019":1946,"2020":1433,"2021":873,"2022":1011,"2023":1011}},{"name":"大関","operator":"えちぜん鉄道","line":"三国芦原線","lat":36.18663,"lng":136.20378,"yearly":{"2018":144,"2019":126,"2020":104,"2021":56,"2022":57,"2023":57}},{"name":"三国神社","operator":"えちぜん鉄道","line":"三国芦原線","lat":36.214885,"lng":136.15833500000002,"yearly":{"2018":146,"2019":136,"2020":115,"2021":58,"2022":68,"2023":68}},{"name":"水居","operator":"えちぜん鉄道","line":"三国芦原線","lat":36.219210000000004,"lng":136.172305,"yearly":{"2018":66,"2019":56,"2020":42,"2021":21,"2022":26,"2023":26}},{"name":"あわら湯のまち","operator":"えちぜん鉄道","line":"三国芦原線","lat":36.22296,"lng":136.1938,"yearly":{"2018":498,"2019":451,"2020":345,"2021":201,"2022":224,"2023":224}},{"name":"西春江ハートピア","operator":"えちぜん鉄道","line":"三国芦原線","lat":36.1389,"lng":136.20622,"yearly":{"2018":268,"2019":264,"2020":208,"2021":120,"2022":117,"2023":117}},{"name":"田原町","operator":"えちぜん鉄道","line":"三国芦原線","lat":36.07499,"lng":136.21764000000002,"yearly":{"2018":2697,"2019":2527,"2020":0,"2021":1357,"2022":1826,"2023":1840}},{"name":"下兵庫こうふく","operator":"えちぜん鉄道","line":"三国芦原線","lat":36.17012,"lng":136.2025933333333,"yearly":{"2018":155,"2019":131,"2020":99,"2021":58,"2022":77,"2023":77}},{"name":"三国港","operator":"えちぜん鉄道","line":"三国芦原線","lat":36.220095,"lng":136.140355,"yearly":{"2018":312,"2019":282,"2020":187,"2021":105,"2022":126,"2023":126}},{"name":"本荘","operator":"えちぜん鉄道","line":"三国芦原線","lat":36.204625,"lng":136.20316000000003,"yearly":{"2018":107,"2019":122,"2020":110,"2021":56,"2022":62,"2023":62}},{"name":"志比堺","operator":"えちぜん鉄道","line":"勝山永平寺線","lat":36.09777,"lng":136.311005,"yearly":{"2018":35,"2019":37,"2020":26,"2021":14,"2022":14,"2023":14}},{"name":"越前竹原","operator":"えちぜん鉄道","line":"勝山永平寺線","lat":36.073933333333336,"lng":136.41303,"yearly":{"2018":107,"2019":90,"2020":78,"2021":42,"2022":54,"2023":54}},{"name":"保田","operator":"えちぜん鉄道","line":"勝山永平寺線","lat":36.06992,"lng":136.45165333333333,"yearly":{"2018":16,"2019":14,"2020":7,"2021":3,"2022":4,"2023":4}},{"name":"山王","operator":"えちぜん鉄道","line":"勝山永平寺線","lat":36.07912,"lng":136.39245333333332,"yearly":{"2018":133,"2019":123,"2020":89,"2021":48,"2022":58,"2023":58}},{"name":"勝山","operator":"えちぜん鉄道","line":"勝山永平寺線","lat":36.05592333333333,"lng":136.49220000000003,"yearly":{"2018":818,"2019":759,"2020":448,"2021":275,"2022":340,"2023":340}},{"name":"越前野中","operator":"えちぜん鉄道","line":"勝山永平寺線","lat":36.08289,"lng":136.37687666666667,"yearly":{"2018":41,"2019":45,"2020":33,"2021":15,"2022":17,"2023":17}},{"name":"松岡","operator":"えちぜん鉄道","line":"勝山永平寺線","lat":36.094030000000004,"lng":136.30172499999998,"yearly":{"2018":407,"2019":363,"2020":267,"2021":141,"2022":152,"2023":152}},{"name":"発坂","operator":"えちぜん鉄道","line":"勝山永平寺線","lat":36.07259,"lng":136.46616333333333,"yearly":{"2018":111,"2019":116,"2020":83,"2021":40,"2022":44,"2023":44}},{"name":"光明寺","operator":"えちぜん鉄道","line":"勝山永平寺線","lat":36.08842,"lng":136.34455,"yearly":{"2018":28,"2019":22,"2020":13,"2021":8,"2022":7,"2023":7}},{"name":"永平寺口","operator":"えちぜん鉄道","line":"勝山永平寺線","lat":36.095805,"lng":136.32674500000002,"yearly":{"2018":435,"2019":389,"2020":302,"2021":166,"2022":175,"2023":175}},{"name":"小舟渡","operator":"えちぜん鉄道","line":"勝山永平寺線","lat":36.07553333333333,"lng":136.43405333333334,"yearly":{"2018":14,"2019":14,"2020":9,"2021":6,"2022":7,"2023":7}},{"name":"轟","operator":"えちぜん鉄道","line":"勝山永平寺線","lat":36.086839999999995,"lng":136.3611,"yearly":{"2018":80,"2019":80,"2020":67,"2021":41,"2022":41,"2023":41}},{"name":"下志比","operator":"えちぜん鉄道","line":"勝山永平寺線","lat":36.09063,"lng":136.336405,"yearly":{"2018":84,"2019":80,"2020":63,"2021":36,"2022":42,"2023":42}},{"name":"比島","operator":"えちぜん鉄道","line":"勝山永平寺線","lat":36.06597666666667,"lng":136.4841133333333,"yearly":{"2018":1,"2019":1,"2020":1,"2021":1,"2022":2,"2023":2}},{"name":"福井口","operator":"えちぜん鉄道","line":"勝山永平寺線","lat":36.070147670222326,"lng":136.23290437555744,"yearly":{"2018":0,"2019":0,"2020":0,"2021":0,"2022":0,"2023":0}},{"name":"越前新保","operator":"えちぜん鉄道","line":"勝山永平寺線","lat":36.080380000000005,"lng":136.25095,"yearly":{"2018":532,"2019":474,"2020":391,"2021":222,"2022":244,"2023":244}},{"name":"越前開発","operator":"えちぜん鉄道","line":"勝山永平寺線","lat":36.075305,"lng":136.24128000000002,"yearly":{"2018":488,"2019":439,"2020":374,"2021":187,"2022":205,"2023":205}},{"name":"福井","operator":"えちぜん鉄道","line":"勝山永平寺線","lat":36.062332751910304,"lng":136.2240957050995,"yearly":{"2018":6392,"2019":6359,"2020":4444,"2021":2479,"2022":2827,"2023":2827}},{"name":"越前島橋","operator":"えちぜん鉄道","line":"勝山永平寺線","lat":36.09012,"lng":136.277265,"yearly":{"2018":80,"2019":85,"2020":85,"2021":55,"2022":68,"2023":68}},{"name":"観音町","operator":"えちぜん鉄道","line":"勝山永平寺線","lat":36.09183,"lng":136.28969,"yearly":{"2018":616,"2019":1106,"2020":486,"2021":291,"2022":294,"2023":294}},{"name":"東藤島","operator":"えちぜん鉄道","line":"勝山永平寺線","lat":36.08663,"lng":136.269855,"yearly":{"2018":126,"2019":113,"2020":80,"2021":38,"2022":48,"2023":48}},{"name":"新福井","operator":"えちぜん鉄道","line":"勝山永平寺線","lat":36.064941599853086,"lng":136.22687670007346,"yearly":{"2018":41,"2019":38,"2020":39,"2021":19,"2022":22,"2023":22}},{"name":"追分口","operator":"えちぜん鉄道","line":"勝山永平寺線","lat":36.08249,"lng":136.261375,"yearly":{"2018":92,"2019":84,"2020":68,"2021":33,"2022":44,"2023":44}},{"name":"東多良木","operator":"くま川鉄道","line":"湯前線","lat":32.272245,"lng":130.95080000000002,"yearly":{"2018":69,"2019":51,"2020":27,"2021":0,"2022":40,"2023":66}},{"name":"一武","operator":"くま川鉄道","line":"湯前線","lat":32.21456,"lng":130.83994,"yearly":{"2018":124,"2019":105,"2020":54,"2021":49,"2022":19,"2023":15}},{"name":"木上","operator":"くま川鉄道","line":"湯前線","lat":32.224275000000006,"lng":130.85890999999998,"yearly":{"2018":11,"2019":11,"2020":2,"2021":0,"2022":6,"2023":8}},{"name":"公立病院前","operator":"くま川鉄道","line":"湯前線","lat":32.256035,"lng":130.92189000000002,"yearly":{"2018":19,"2019":21,"2020":10,"2021":12,"2022":10,"2023":12}},{"name":"多良木","operator":"くま川鉄道","line":"湯前線","lat":32.262755,"lng":130.93319000000002,"yearly":{"2018":352,"2019":277,"2020":178,"2021":226,"2022":218,"2023":198}},{"name":"あさぎり","operator":"くま川鉄道","line":"湯前線","lat":32.23625,"lng":130.89376,"yearly":{"2018":762,"2019":762,"2020":431,"2021":504,"2022":493,"2023":459}},{"name":"湯前","operator":"くま川鉄道","line":"湯前線","lat":32.281365,"lng":130.979865,"yearly":{"2018":405,"2019":373,"2020":182,"2021":231,"2022":276,"2023":296}},{"name":"新鶴羽","operator":"くま川鉄道","line":"湯前線","lat":32.275445000000005,"lng":130.96621,"yearly":{"2018":22,"2019":19,"2020":10,"2021":7,"2022":16,"2023":8}},{"name":"肥後西村","operator":"くま川鉄道","line":"湯前線","lat":32.20227,"lng":130.808865,"yearly":{"2018":503,"2019":496,"2020":312,"2021":326,"2022":341,"2023":341}},{"name":"おかどめ幸福","operator":"くま川鉄道","line":"湯前線","lat":32.231449999999995,"lng":130.87510500000002,"yearly":{"2018":158,"2019":155,"2020":80,"2021":80,"2022":83,"2023":72}},{"name":"東免田","operator":"くま川鉄道","line":"湯前線","lat":32.2502,"lng":130.91302000000002,"yearly":{"2018":63,"2019":48,"2020":20,"2021":0,"2022":44,"2023":61}},{"name":"相良藩願成寺","operator":"くま川鉄道","line":"湯前線","lat":32.218365,"lng":130.769635,"yearly":{"2018":691,"2019":614,"2020":430,"2021":480,"2022":445,"2023":472}},{"name":"川村","operator":"くま川鉄道","line":"湯前線","lat":32.207235,"lng":130.79534999999998,"yearly":{"2018":5,"2019":6,"2020":4,"2021":2,"2022":4,"2023":2}},{"name":"人吉温泉","operator":"くま川鉄道","line":"湯前線","lat":32.216139999999996,"lng":130.753815,"yearly":{"2018":1015,"2019":953,"2020":477,"2021":560,"2022":523,"2023":495}},{"name":"平原","operator":"しなの鉄道","line":"しなの鉄道線","lat":36.308635,"lng":138.45391,"yearly":{"2018":194,"2019":178,"2020":135,"2021":139,"2022":148,"2023":144}},{"name":"屋代高校前","operator":"しなの鉄道","line":"しなの鉄道線","lat":36.547955,"lng":138.13249,"yearly":{"2018":2021,"2019":1961,"2020":1724,"2021":2009,"2022":2160,"2023":2210}},{"name":"中軽井沢","operator":"しなの鉄道","line":"しなの鉄道線","lat":36.347562,"lng":138.59321200000002,"yearly":{"2018":1640,"2019":1395,"2020":828,"2021":951,"2022":1142,"2023":1326}},{"name":"御代田","operator":"しなの鉄道","line":"しなの鉄道線","lat":36.31899,"lng":138.50632000000002,"yearly":{"2018":1619,"2019":1600,"2020":1164,"2021":1359,"2022":1448,"2023":1606}},{"name":"軽井沢","operator":"しなの鉄道","line":"しなの鉄道線","lat":36.342863333333334,"lng":138.63513,"yearly":{"2018":3339,"2019":3015,"2020":1734,"2021":2013,"2022":2457,"2023":2823}},{"name":"信濃追分","operator":"しなの鉄道","line":"しなの鉄道線","lat":36.335449999999994,"lng":138.558495,"yearly":{"2018":546,"2019":492,"2020":316,"2021":354,"2022":445,"2023":492}},{"name":"田中","operator":"しなの鉄道","line":"しなの鉄道線","lat":36.354415,"lng":138.32921,"yearly":{"2018":2404,"2019":2301,"2020":1733,"2021":1925,"2022":2012,"2023":1995}},{"name":"上田","operator":"しなの鉄道","line":"しなの鉄道線","lat":36.39575333333333,"lng":138.25026,"yearly":{"2018":10820,"2019":10337,"2020":7335,"2021":8248,"2022":8836,"2023":9158}},{"name":"西上田","operator":"しなの鉄道","line":"しなの鉄道線","lat":36.416875000000005,"lng":138.209055,"yearly":{"2018":1984,"2019":1781,"2020":1414,"2021":1523,"2022":1580,"2023":1632}},{"name":"戸倉","operator":"しなの鉄道","line":"しなの鉄道線","lat":36.4928675,"lng":138.15308249999998,"yearly":{"2018":2324,"2019":2224,"2020":1676,"2021":1856,"2022":1930,"2023":1924}},{"name":"坂城","operator":"しなの鉄道","line":"しなの鉄道線","lat":36.46198,"lng":138.18144999999998,"yearly":{"2018":1675,"2019":1591,"2020":1232,"2021":1326,"2022":1323,"2023":1340}},{"name":"信濃国分寺","operator":"しなの鉄道","line":"しなの鉄道線","lat":36.37832,"lng":138.27383500000002,"yearly":{"2018":1184,"2019":1111,"2020":873,"2021":949,"2022":961,"2023":1052}},{"name":"大屋","operator":"しなの鉄道","line":"しなの鉄道線","lat":36.36959,"lng":138.29712999999998,"yearly":{"2018":1953,"2019":1708,"2020":1271,"2021":1431,"2022":1470,"2023":1480}},{"name":"滋野","operator":"しなの鉄道","line":"しなの鉄道線","lat":36.34232,"lng":138.36390749999998,"yearly":{"2018":798,"2019":781,"2020":556,"2021":611,"2022":657,"2023":680}},{"name":"屋代","operator":"しなの鉄道","line":"しなの鉄道線","lat":36.532422499999996,"lng":138.1282,"yearly":{"2018":4318,"2019":4265,"2020":3195,"2021":3312,"2022":3286,"2023":3274}},{"name":"テクノさかき","operator":"しなの鉄道","line":"しなの鉄道線","lat":36.44058,"lng":138.1882,"yearly":{"2018":924,"2019":917,"2020":680,"2021":762,"2022":787,"2023":826}},{"name":"小諸","operator":"しなの鉄道","line":"しなの鉄道線","lat":36.32564166666666,"lng":138.42290166666666,"yearly":{"2018":3574,"2019":0,"2020":0,"2021":5224,"2022":5310,"2023":2578}},{"name":"篠ノ井","operator":"しなの鉄道","line":"しなの鉄道線","lat":36.57695666666667,"lng":138.13807333333332,"yearly":{"2018":0,"2019":0,"2020":0,"2021":0,"2022":0,"2023":0}},{"name":"和倉温泉","operator":"のと鉄道","line":"七尾線","lat":37.0747,"lng":136.92583333333334,"yearly":{"2018":0,"2019":0,"2020":0,"2021":0,"2022":0,"2023":0}},{"name":"七尾","operator":"のと鉄道","line":"七尾線","lat":37.04178,"lng":136.96422,"yearly":{"2018":0,"2019":0,"2020":0,"2021":0,"2022":0,"2023":0}},{"name":"笠師保","operator":"のと鉄道","line":"七尾線","lat":37.079505,"lng":136.85775,"yearly":{"2018":30,"2019":30,"2020":21,"2021":21,"2022":19,"2023":19}},{"name":"田鶴浜","operator":"のと鉄道","line":"七尾線","lat":37.065740000000005,"lng":136.89147,"yearly":{"2018":197,"2019":197,"2020":134,"2021":164,"2022":150,"2023":136}},{"name":"西岸","operator":"のと鉄道","line":"七尾線","lat":37.147665,"lng":136.87416000000002,"yearly":{"2018":24,"2019":24,"2020":17,"2021":34,"2022":14,"2023":20}},{"name":"穴水","operator":"のと鉄道","line":"七尾線","lat":37.228035000000006,"lng":136.904585,"yearly":{"2018":113,"2019":113,"2020":79,"2021":128,"2022":122,"2023":110}},{"name":"能登中島","operator":"のと鉄道","line":"七尾線","lat":37.109255,"lng":136.853615,"yearly":{"2018":115,"2019":115,"2020":81,"2021":99,"2022":88,"2023":91}},{"name":"能登鹿島","operator":"のと鉄道","line":"七尾線","lat":37.17979,"lng":136.897855,"yearly":{"2018":4,"2019":4,"2020":3,"2021":9,"2022":15,"2023":9}},{"name":"桐生","operator":"わたらせ渓谷鐵道","line":"わたらせ渓谷線","lat":36.41109666666666,"lng":139.33325333333335,"yearly":{"2018":0,"2019":0,"2020":0,"2021":0,"2022":0,"2023":0}},{"name":"花輪","operator":"わたらせ渓谷鐵道","line":"わたらせ渓谷線","lat":36.520830000000004,"lng":139.3077,"yearly":{"2018":53,"2019":45,"2020":41,"2021":41,"2022":31,"2023":32}},{"name":"水沼","operator":"わたらせ渓谷鐵道","line":"わたらせ渓谷線","lat":36.499849999999995,"lng":139.277595,"yearly":{"2018":104,"2019":98,"2020":59,"2021":57,"2022":64,"2023":66}},{"name":"神戸","operator":"わたらせ渓谷鐵道","line":"わたらせ渓谷線","lat":36.537505,"lng":139.356565,"yearly":{"2018":198,"2019":190,"2020":85,"2021":82,"2022":104,"2023":124}},{"name":"相老","operator":"わたらせ渓谷鐵道","line":"わたらせ渓谷線","lat":36.41030666666666,"lng":139.30440666666667,"yearly":{"2018":738,"2019":1361,"2020":748,"2021":1100,"2022":1286,"2023":1364}},{"name":"通洞","operator":"わたらせ渓谷鐵道","line":"わたらせ渓谷線","lat":36.636865,"lng":139.43965,"yearly":{"2018":42,"2019":47,"2020":26,"2021":27,"2022":27,"2023":41}},{"name":"上神梅","operator":"わたらせ渓谷鐵道","line":"わたらせ渓谷線","lat":36.47007,"lng":139.257725,"yearly":{"2018":25,"2019":27,"2020":21,"2021":26,"2022":28,"2023":22}},{"name":"間藤","operator":"わたらせ渓谷鐵道","line":"わたらせ渓谷線","lat":36.65354,"lng":139.45009,"yearly":{"2018":158,"2019":155,"2020":90,"2021":90,"2022":118,"2023":140}},{"name":"足尾","operator":"わたらせ渓谷鐵道","line":"わたらせ渓谷線","lat":36.641915,"lng":139.447775,"yearly":{"2018":57,"2019":47,"2020":21,"2021":21,"2022":21,"2023":29}},{"name":"運動公園","operator":"わたらせ渓谷鐵道","line":"わたらせ渓谷線","lat":36.42041,"lng":139.30086,"yearly":{"2018":84,"2019":68,"2020":54,"2021":83,"2022":141,"2023":169}},{"name":"小中","operator":"わたらせ渓谷鐵道","line":"わたらせ渓谷線","lat":36.535655,"lng":139.337795,"yearly":{"2018":21,"2019":14,"2020":11,"2021":9,"2022":8,"2023":7}},{"name":"本宿","operator":"わたらせ渓谷鐵道","line":"わたらせ渓谷線","lat":36.481425,"lng":139.259345,"yearly":{"2018":24,"2019":24,"2020":21,"2021":25,"2022":20,"2023":17}},{"name":"大間々","operator":"わたらせ渓谷鐵道","line":"わたらせ渓谷線","lat":36.434614999999994,"lng":139.27755000000002,"yearly":{"2018":456,"2019":461,"2020":264,"2021":324,"2022":360,"2023":409}},{"name":"沢入","operator":"わたらせ渓谷鐵道","line":"わたらせ渓谷線","lat":36.58063,"lng":139.39628499999998,"yearly":{"2018":26,"2019":29,"2020":19,"2021":20,"2022":18,"2023":17}},{"name":"下新田","operator":"わたらせ渓谷鐵道","line":"わたらせ渓谷線","lat":36.40777666666667,"lng":139.31508666666667,"yearly":{"2018":54,"2019":56,"2020":55,"2021":44,"2022":51,"2023":56}},{"name":"原向","operator":"わたらせ渓谷鐵道","line":"わたらせ渓谷線","lat":36.61731,"lng":139.42052999999999,"yearly":{"2018":2,"2019":2,"2020":2,"2021":2,"2022":2,"2023":2}},{"name":"中野","operator":"わたらせ渓谷鐵道","line":"わたらせ渓谷線","lat":36.524275,"lng":139.317165,"yearly":{"2018":8,"2019":4,"2020":3,"2021":2,"2022":5,"2023":4}},{"name":"海部","operator":"阿佐海岸鉄道","line":"阿佐東線","lat":33.59342,"lng":134.351985,"yearly":{"2018":0,"2019":0,"2020":33,"2021":2,"2022":4,"2023":3}},{"name":"宍喰","operator":"阿佐海岸鉄道","line":"阿佐東線","lat":33.56693,"lng":134.30072,"yearly":{"2018":26,"2019":21,"2020":16,"2021":9,"2022":24,"2023":19}},{"name":"福島","operator":"阿武隈急行","line":"阿武隈急行線","lat":37.754315000000005,"lng":140.45992999999999,"yearly":{"2018":4044,"2019":3764,"2020":2602,"2021":2602,"2022":1787,"2023":2822}},{"name":"角田","operator":"阿武隈急行","line":"阿武隈急行線","lat":37.979290000000006,"lng":140.77240999999998,"yearly":{"2018":1485,"2019":1054,"2020":844,"2021":1078,"2022":1002,"2023":1279}},{"name":"南角田","operator":"阿武隈急行","line":"阿武隈急行線","lat":37.964895,"lng":140.769615,"yearly":{"2018":24,"2019":19,"2020":12,"2021":28,"2022":29,"2023":35}},{"name":"大泉","operator":"阿武隈急行","line":"阿武隈急行線","lat":37.81989,"lng":140.56684,"yearly":{"2018":504,"2019":480,"2020":330,"2021":338,"2022":190,"2023":289}},{"name":"保原","operator":"阿武隈急行","line":"阿武隈急行線","lat":37.814565,"lng":140.55659500000002,"yearly":{"2018":1029,"2019":1007,"2020":729,"2021":754,"2022":474,"2023":799}},{"name":"卸町","operator":"阿武隈急行","line":"阿武隈急行線","lat":37.795455,"lng":140.47948,"yearly":{"2018":620,"2019":620,"2020":499,"2021":493,"2022":270,"2023":431}},{"name":"高子","operator":"阿武隈急行","line":"阿武隈急行線","lat":37.808386666666664,"lng":140.52718333333334,"yearly":{"2018":116,"2019":115,"2020":88,"2021":92,"2022":61,"2023":99}},{"name":"瀬上","operator":"阿武隈急行","line":"阿武隈急行線","lat":37.802375,"lng":140.49856499999999,"yearly":{"2018":333,"2019":342,"2020":249,"2021":220,"2022":147,"2023":234}},{"name":"兜","operator":"阿武隈急行","line":"阿武隈急行線","lat":37.8953925,"lng":140.64652,"yearly":{"2018":2,"2019":1,"2020":0,"2021":1,"2022":1,"2023":1}},{"name":"岡","operator":"阿武隈急行","line":"阿武隈急行線","lat":38.01902333333334,"lng":140.78034333333332,"yearly":{"2018":125,"2019":93,"2020":79,"2021":101,"2022":93,"2023":118}},{"name":"上保原","operator":"阿武隈急行","line":"阿武隈急行線","lat":37.80961,"lng":140.54282,"yearly":{"2018":406,"2019":397,"2020":282,"2021":320,"2022":215,"2023":329}},{"name":"二井田","operator":"阿武隈急行","line":"阿武隈急行線","lat":37.827815,"lng":140.580375,"yearly":{"2018":66,"2019":60,"2020":47,"2021":50,"2022":33,"2023":44}},{"name":"北丸森","operator":"阿武隈急行","line":"阿武隈急行線","lat":37.943105,"lng":140.77182,"yearly":{"2018":29,"2019":19,"2020":15,"2021":13,"2022":18,"2023":22}},{"name":"丸森","operator":"阿武隈急行","line":"阿武隈急行線","lat":37.93072,"lng":140.76172000000003,"yearly":{"2018":452,"2019":316,"2020":231,"2021":349,"2022":348,"2023":472}},{"name":"槻木","operator":"阿武隈急行","line":"阿武隈急行線","lat":38.07914,"lng":140.81018333333333,"yearly":{"2018":1167,"2019":949,"2020":659,"2021":718,"2022":756,"2023":920}},{"name":"横倉","operator":"阿武隈急行","line":"阿武隈急行線","lat":37.996985,"lng":140.77605,"yearly":{"2018":20,"2019":24,"2020":16,"2021":11,"2022":13,"2023":17}},{"name":"富野","operator":"阿武隈急行","line":"阿武隈急行線","lat":37.87474,"lng":140.627465,"yearly":{"2018":41,"2019":34,"2020":21,"2021":16,"2022":15,"2023":21}},{"name":"東船岡","operator":"阿武隈急行","line":"阿武隈急行線","lat":38.050129999999996,"lng":140.789815,"yearly":{"2018":175,"2019":152,"2020":149,"2021":188,"2022":149,"2023":161}},{"name":"梁川","operator":"阿武隈急行","line":"阿武隈急行線","lat":37.846000000000004,"lng":140.60347,"yearly":{"2018":481,"2019":446,"2020":319,"2021":349,"2022":286,"2023":447}},{"name":"福島学院前","operator":"阿武隈急行","line":"阿武隈急行線","lat":37.79875333333334,"lng":140.48858833333335,"yearly":{"2018":683,"2019":658,"2020":498,"2021":471,"2022":282,"2023":528}},{"name":"向瀬上","operator":"阿武隈急行","line":"阿武隈急行線","lat":37.80658,"lng":140.51033,"yearly":{"2018":66,"2019":45,"2020":37,"2021":38,"2022":24,"2023":37}},{"name":"新田","operator":"阿武隈急行","line":"阿武隈急行線","lat":37.83776,"lng":140.593025,"yearly":{"2018":257,"2019":239,"2020":167,"2021":161,"2022":101,"2023":139}},{"name":"やながわ希望の森公園前","operator":"阿武隈急行","line":"阿武隈急行線","lat":37.857870000000005,"lng":140.61565000000002,"yearly":{"2018":362,"2019":310,"2020":213,"2021":186,"2022":101,"2023":156}},{"name":"あぶくま","operator":"阿武隈急行","line":"阿武隈急行線","lat":37.913405,"lng":140.68576000000002,"yearly":{"2018":10,"2019":5,"2020":0,"2021":5,"2022":7,"2023":5}},{"name":"新豊田","operator":"愛知環状鉄道","line":"愛知環状鉄道線","lat":35.087878571428575,"lng":137.15354142857143,"yearly":{"2018":15447,"2019":15694,"2020":9571,"2021":9361,"2022":10549,"2023":11964}},{"name":"保見","operator":"愛知環状鉄道","line":"愛知環状鉄道線","lat":35.136715,"lng":137.1343625,"yearly":{"2018":1261,"2019":1333,"2020":1096,"2021":1206,"2022":1248,"2023":1305}},{"name":"山口","operator":"愛知環状鉄道","line":"愛知環状鉄道線","lat":35.197895,"lng":137.1017025,"yearly":{"2018":1932,"2019":1965,"2020":1686,"2021":1775,"2022":1840,"2023":1922}},{"name":"大門","operator":"愛知環状鉄道","line":"愛知環状鉄道線","lat":34.98258,"lng":137.15473500000002,"yearly":{"2018":2759,"2019":2858,"2020":2186,"2021":2374,"2022":2580,"2023":2750}},{"name":"高蔵寺","operator":"愛知環状鉄道","line":"愛知環状鉄道線","lat":35.264255,"lng":137.04326,"yearly":{"2018":0,"2019":0,"2020":0,"2021":0,"2022":0,"2023":0}},{"name":"永覚","operator":"愛知環状鉄道","line":"愛知環状鉄道線","lat":35.02747,"lng":137.13898,"yearly":{"2018":579,"2019":628,"2020":410,"2021":463,"2022":498,"2023":511}},{"name":"新上挙母","operator":"愛知環状鉄道","line":"愛知環状鉄道線","lat":35.07179,"lng":137.15118,"yearly":{"2018":1625,"2019":1639,"2020":1208,"2021":1214,"2022":1298,"2023":1370}},{"name":"八草","operator":"愛知環状鉄道","line":"愛知環状鉄道線","lat":35.17492,"lng":137.10715,"yearly":{"2018":6130,"2019":6344,"2020":3785,"2021":4991,"2022":5834,"2023":6312}},{"name":"末野原","operator":"愛知環状鉄道","line":"愛知環状鉄道線","lat":35.03954,"lng":137.14690000000002,"yearly":{"2018":2508,"2019":2567,"2020":1878,"2021":1982,"2022":2201,"2023":2412}},{"name":"瀬戸市","operator":"愛知環状鉄道","line":"愛知環状鉄道線","lat":35.22591333333333,"lng":137.07844333333333,"yearly":{"2018":6392,"2019":6357,"2020":5097,"2021":5386,"2022":5813,"2023":6141}},{"name":"三河上郷","operator":"愛知環状鉄道","line":"愛知環状鉄道線","lat":35.01241,"lng":137.13276,"yearly":{"2018":1996,"2019":2075,"2020":1542,"2021":1624,"2022":1763,"2023":1990}},{"name":"北野桝塚","operator":"愛知環状鉄道","line":"愛知環状鉄道線","lat":34.996285,"lng":137.13949,"yearly":{"2018":2272,"2019":2394,"2020":1597,"2021":1677,"2022":1815,"2023":2022}},{"name":"中水野","operator":"愛知環状鉄道","line":"愛知環状鉄道線","lat":35.250455,"lng":137.071925,"yearly":{"2018":3317,"2019":3340,"2020":2757,"2021":2857,"2022":2967,"2023":3053}},{"name":"三河豊田","operator":"愛知環状鉄道","line":"愛知環状鉄道線","lat":35.05543666666667,"lng":137.15093000000002,"yearly":{"2018":14918,"2019":14917,"2020":8674,"2021":7272,"2022":7396,"2023":8591}},{"name":"篠原","operator":"愛知環状鉄道","line":"愛知環状鉄道線","lat":35.15473,"lng":137.12077,"yearly":{"2018":279,"2019":294,"2020":226,"2021":224,"2022":231,"2023":240}},{"name":"瀬戸口","operator":"愛知環状鉄道","line":"愛知環状鉄道線","lat":35.206565,"lng":137.08213,"yearly":{"2018":4175,"2019":4242,"2020":3437,"2021":3565,"2022":3778,"2023":4022}},{"name":"愛環梅坪","operator":"愛知環状鉄道","line":"愛知環状鉄道線","lat":35.105154999999996,"lng":137.160915,"yearly":{"2018":1958,"2019":1932,"2020":1498,"2021":1582,"2022":1558,"2023":1698}},{"name":"四郷","operator":"愛知環状鉄道","line":"愛知環状鉄道線","lat":35.12192666666667,"lng":137.16269333333332,"yearly":{"2018":1394,"2019":1454,"2020":1193,"2021":1312,"2022":1434,"2023":1615}},{"name":"貝津","operator":"愛知環状鉄道","line":"愛知環状鉄道線","lat":35.13312,"lng":137.148055,"yearly":{"2018":1109,"2019":1228,"2020":744,"2021":993,"2022":1147,"2023":1287}},{"name":"北岡崎","operator":"愛知環状鉄道","line":"愛知環状鉄道線","lat":34.972255000000004,"lng":137.1577,"yearly":{"2018":3684,"2019":3714,"2020":2941,"2021":3154,"2022":3436,"2023":3677}},{"name":"岡崎","operator":"愛知環状鉄道","line":"愛知環状鉄道線","lat":34.925783333333335,"lng":137.15723333333332,"yearly":{"2018":0,"2019":0,"2020":0,"2021":0,"2022":0,"2023":0}},{"name":"中岡崎","operator":"愛知環状鉄道","line":"愛知環状鉄道線","lat":34.95634,"lng":137.15278,"yearly":{"2018":4068,"2019":4159,"2020":3078,"2021":3365,"2022":3865,"2023":4229}},{"name":"六名","operator":"愛知環状鉄道","line":"愛知環状鉄道線","lat":34.941285,"lng":137.151885,"yearly":{"2018":1491,"2019":1619,"2020":1268,"2021":1299,"2022":1320,"2023":1414}},{"name":"杁ヶ池公園","operator":"愛知高速交通","line":"東部丘陵線","lat":35.171745,"lng":137.0379,"yearly":{"2018":3180,"2019":3107,"2020":2159,"2021":2522,"2022":2919,"2023":3065}},{"name":"陶磁資料館南","operator":"愛知高速交通","line":"東部丘陵線","lat":35.17924,"lng":137.09705,"yearly":{"2018":290,"2019":281,"2020":187,"2021":216,"2022":278,"2023":270}},{"name":"公園西","operator":"愛知高速交通","line":"東部丘陵線","lat":35.1743,"lng":137.07685500000002,"yearly":{"2018":2400,"2019":2512,"2020":1591,"2021":2037,"2022":2387,"2023":2545}},{"name":"愛・地球博記念公園","operator":"愛知高速交通","line":"東部丘陵線","lat":35.177665000000005,"lng":137.087535,"yearly":{"2018":4905,"2019":4739,"2020":1403,"2021":3135,"2022":5249,"2023":7057}},{"name":"芸大通","operator":"愛知高速交通","line":"東部丘陵線","lat":35.17188,"lng":137.06122,"yearly":{"2018":2147,"2019":2040,"2020":1397,"2021":1645,"2022":1822,"2023":2031}},{"name":"長久手古戦場","operator":"愛知高速交通","line":"東部丘陵線","lat":35.17147,"lng":137.049505,"yearly":{"2018":6670,"2019":6809,"2020":4184,"2021":5078,"2022":5693,"2023":5933}},{"name":"はなみずき通","operator":"愛知高速交通","line":"東部丘陵線","lat":35.17752,"lng":137.03547,"yearly":{"2018":3007,"2019":2884,"2020":2035,"2021":2267,"2022":2554,"2023":2788}},{"name":"八草","operator":"愛知高速交通","line":"東部丘陵線","lat":35.176514999999995,"lng":137.10635000000002,"yearly":{"2018":7250,"2019":7767,"2020":4483,"2021":6145,"2022":7178,"2023":7698}},{"name":"藤が丘","operator":"愛知高速交通","line":"東部丘陵線","lat":35.182199999999995,"lng":137.022265,"yearly":{"2018":19985,"2019":20266,"2020":12051,"2021":15396,"2022":18563,"2023":21067}},{"name":"多宝塔","operator":"鞍馬寺","line":"鞍馬山鋼索鉄道","lat":35.11644,"lng":135.77281,"yearly":{"2018":792,"2019":732,"2020":367,"2021":486,"2022":553,"2023":624}},{"name":"山門","operator":"鞍馬寺","line":"鞍馬山鋼索鉄道","lat":35.11455,"lng":135.772875,"yearly":{"2018":792,"2019":732,"2020":367,"2021":486,"2022":553,"2023":624}},{"name":"河芸","operator":"伊勢鉄道","line":"伊勢線","lat":34.780985,"lng":136.530995,"yearly":{"2018":91,"2019":99,"2020":31,"2021":33,"2022":96,"2023":30}},{"name":"伊勢上野","operator":"伊勢鉄道","line":"伊勢線","lat":34.800335000000004,"lng":136.54248,"yearly":{"2018":102,"2019":140,"2020":50,"2021":63,"2022":149,"2023":66}},{"name":"鈴鹿サーキット稲生","operator":"伊勢鉄道","line":"伊勢線","lat":34.8411,"lng":136.555215,"yearly":{"2018":261,"2019":237,"2020":109,"2021":127,"2022":454,"2023":108}},{"name":"中瀬古","operator":"伊勢鉄道","line":"伊勢線","lat":34.812145,"lng":136.543045,"yearly":{"2018":267,"2019":285,"2020":106,"2021":113,"2022":263,"2023":112}},{"name":"鈴鹿","operator":"伊勢鉄道","line":"伊勢線","lat":34.87847,"lng":136.588795,"yearly":{"2018":577,"2019":574,"2020":168,"2021":187,"2022":430,"2023":90}},{"name":"玉垣","operator":"伊勢鉄道","line":"伊勢線","lat":34.85514,"lng":136.57002999999997,"yearly":{"2018":379,"2019":471,"2020":139,"2021":172,"2022":437,"2023":177}},{"name":"徳田","operator":"伊勢鉄道","line":"伊勢線","lat":34.826145,"lng":136.54398500000002,"yearly":{"2018":38,"2019":39,"2020":20,"2021":20,"2022":49,"2023":17}},{"name":"河原田","operator":"伊勢鉄道","line":"伊勢線","lat":34.911235000000005,"lng":136.599275,"yearly":{"2018":0,"2019":0,"2020":0,"2021":0,"2022":0,"2023":0}},{"name":"東一身田","operator":"伊勢鉄道","line":"伊勢線","lat":34.758735,"lng":136.51209999999998,"yearly":{"2018":139,"2019":141,"2020":47,"2021":53,"2022":109,"2023":54}},{"name":"津","operator":"伊勢鉄道","line":"伊勢線","lat":34.73437333333333,"lng":136.51072333333335,"yearly":{"2018":35056,"2019":0,"2020":0,"2021":0,"2022":0,"2023":0}},{"name":"稲梓","operator":"伊豆急行","line":"伊豆急行線","lat":34.72206,"lng":138.9494,"yearly":{"2018":55,"2019":53,"2020":30,"2021":28,"2022":34,"2023":33}},{"name":"伊豆熱川","operator":"伊豆急行","line":"伊豆急行線","lat":34.817212857142856,"lng":139.06945285714286,"yearly":{"2018":1078,"2019":1095,"2020":584,"2021":626,"2022":830,"2023":900}},{"name":"蓮台寺","operator":"伊豆急行","line":"伊豆急行線","lat":34.699466666666666,"lng":138.94129,"yearly":{"2018":750,"2019":700,"2020":500,"2021":473,"2022":474,"2023":462}},{"name":"片瀬白田","operator":"伊豆急行","line":"伊豆急行線","lat":34.80185,"lng":139.06122,"yearly":{"2018":419,"2019":418,"2020":204,"2021":216,"2022":234,"2023":216}},{"name":"河津","operator":"伊豆急行","line":"伊豆急行線","lat":34.747436666666665,"lng":138.99591333333333,"yearly":{"2018":1730,"2019":1477,"2020":807,"2021":945,"2022":1309,"2023":1386}},{"name":"伊豆北川","operator":"伊豆急行","line":"伊豆急行線","lat":34.827275,"lng":139.07572499999998,"yearly":{"2018":63,"2019":68,"2020":33,"2021":32,"2022":44,"2023":49}},{"name":"伊豆急下田","operator":"伊豆急行","line":"伊豆急行線","lat":34.679689999999994,"lng":138.944285,"yearly":{"2018":3494,"2019":3576,"2020":1887,"2021":2052,"2022":2907,"2023":3171}},{"name":"南伊東","operator":"伊豆急行","line":"伊豆急行線","lat":34.957755000000006,"lng":139.088035,"yearly":{"2018":1205,"2019":1197,"2020":827,"2021":753,"2022":772,"2023":834}},{"name":"今井浜海岸","operator":"伊豆急行","line":"伊豆急行線","lat":34.753715,"lng":139.00467,"yearly":{"2018":286,"2019":293,"2020":190,"2021":195,"2022":221,"2023":214}},{"name":"富戸","operator":"伊豆急行","line":"伊豆急行線","lat":34.910039999999995,"lng":139.131685,"yearly":{"2018":389,"2019":378,"2020":252,"2021":221,"2022":257,"2023":254}},{"name":"城ヶ崎海岸","operator":"伊豆急行","line":"伊豆急行線","lat":34.890185,"lng":139.1219275,"yearly":{"2018":744,"2019":746,"2020":424,"2021":447,"2022":482,"2023":392}},{"name":"伊豆高原","operator":"伊豆急行","line":"伊豆急行線","lat":34.87746,"lng":139.10817500000002,"yearly":{"2018":3174,"2019":2988,"2020":1618,"2021":1756,"2022":2252,"2023":2609}},{"name":"伊豆稲取","operator":"伊豆急行","line":"伊豆急行線","lat":34.774555,"lng":139.03737,"yearly":{"2018":1523,"2019":1409,"2020":912,"2021":950,"2022":1115,"2023":1190}},{"name":"伊豆大川","operator":"伊豆急行","line":"伊豆急行線","lat":34.84335,"lng":139.07407,"yearly":{"2018":268,"2019":265,"2020":97,"2021":111,"2022":152,"2023":179}},{"name":"伊東","operator":"伊豆急行","line":"伊豆急行線","lat":34.974835,"lng":139.092105,"yearly":{"2018":0,"2019":0,"2020":0,"2021":0,"2022":0,"2023":0}},{"name":"川奈","operator":"伊豆急行","line":"伊豆急行線","lat":34.950885,"lng":139.12483500000002,"yearly":{"2018":1492,"2019":1436,"2020":961,"2021":824,"2022":892,"2023":1107}},{"name":"十国峠山麓","operator":"十国峠","line":"十国鋼索線","lat":35.12768,"lng":139.03743,"yearly":{"2018":507,"2019":433,"2020":214,"2021":270,"2022":558,"2023":824}},{"name":"十国峠山頂","operator":"十国峠","line":"十国鋼索線","lat":35.12768,"lng":139.04083,"yearly":{"2018":507,"2019":433,"2020":214,"2021":270,"2022":558,"2023":824}},{"name":"修善寺","operator":"伊豆箱根鉄道","line":"駿豆線","lat":34.97927,"lng":138.95096999999998,"yearly":{"2018":4873,"2019":4580,"2020":3059,"2021":3380,"2022":3633,"2023":3865}},{"name":"三島","operator":"伊豆箱根鉄道","line":"駿豆線","lat":35.125855,"lng":138.910635,"yearly":{"2018":17031,"2019":16899,"2020":11657,"2021":12640,"2022":14226,"2023":15051}},{"name":"大仁","operator":"伊豆箱根鉄道","line":"駿豆線","lat":34.994365,"lng":138.93746,"yearly":{"2018":2401,"2019":2401,"2020":1779,"2021":1770,"2022":1888,"2023":2061}},{"name":"韮山","operator":"伊豆箱根鉄道","line":"駿豆線","lat":35.053285,"lng":138.94552,"yearly":{"2018":2906,"2019":2926,"2020":2298,"2021":2520,"2022":2831,"2023":2781}},{"name":"牧之郷","operator":"伊豆箱根鉄道","line":"駿豆線","lat":34.988855,"lng":138.95442,"yearly":{"2018":438,"2019":428,"2020":338,"2021":367,"2022":399,"2023":471}},{"name":"伊豆長岡","operator":"伊豆箱根鉄道","line":"駿豆線","lat":35.039805,"lng":138.94751,"yearly":{"2018":4910,"2019":4807,"2020":3413,"2021":3685,"2022":4012,"2023":4162}},{"name":"三島二日町","operator":"伊豆箱根鉄道","line":"駿豆線","lat":35.11103,"lng":138.92593499999998,"yearly":{"2018":2956,"2019":2924,"2020":2260,"2021":2325,"2022":2558,"2023":2631}},{"name":"原木","operator":"伊豆箱根鉄道","line":"駿豆線","lat":35.06549,"lng":138.943705,"yearly":{"2018":670,"2019":687,"2020":499,"2021":523,"2022":563,"2023":552}},{"name":"大場","operator":"伊豆箱根鉄道","line":"駿豆線","lat":35.0922,"lng":138.93938,"yearly":{"2018":4981,"2019":4911,"2020":3686,"2021":3857,"2022":4106,"2023":4205}},{"name":"三島田町","operator":"伊豆箱根鉄道","line":"駿豆線","lat":35.1162025,"lng":138.9185625,"yearly":{"2018":2731,"2019":2650,"2020":2000,"2021":2020,"2022":2212,"2023":2263}},{"name":"田京","operator":"伊豆箱根鉄道","line":"駿豆線","lat":35.014565,"lng":138.94577500000003,"yearly":{"2018":2634,"2019":2580,"2020":1916,"2021":2021,"2022":2091,"2023":2180}},{"name":"伊豆仁田","operator":"伊豆箱根鉄道","line":"駿豆線","lat":35.078755,"lng":138.941565,"yearly":{"2018":3197,"2019":3193,"2020":2556,"2021":2750,"2022":2889,"2023":2913}},{"name":"三島広小路","operator":"伊豆箱根鉄道","line":"駿豆線","lat":35.119344999999996,"lng":138.911215,"yearly":{"2018":3960,"2019":3806,"2020":2731,"2021":2906,"2022":3214,"2023":3347}},{"name":"穴部","operator":"伊豆箱根鉄道","line":"大雄山線","lat":35.27986,"lng":139.14878,"yearly":{"2018":1356,"2019":1355,"2020":1087,"2021":1185,"2022":1210,"2023":1228}},{"name":"和田河原","operator":"伊豆箱根鉄道","line":"大雄山線","lat":35.31594666666666,"lng":139.11822,"yearly":{"2018":3190,"2019":3065,"2020":2403,"2021":2526,"2022":2787,"2023":2841}},{"name":"小田原","operator":"伊豆箱根鉄道","line":"大雄山線","lat":35.256405,"lng":139.15650499999998,"yearly":{"2018":17497,"2019":17017,"2020":12796,"2021":13727,"2022":14768,"2023":15336}},{"name":"岩原","operator":"伊豆箱根鉄道","line":"大雄山線","lat":35.298829999999995,"lng":139.12881,"yearly":{"2018":1538,"2019":1493,"2020":1121,"2021":1213,"2022":1339,"2023":1401}},{"name":"大雄山","operator":"伊豆箱根鉄道","line":"大雄山線","lat":35.31904333333333,"lng":139.10370333333333,"yearly":{"2018":5132,"2019":4986,"2020":3770,"2021":3908,"2022":4136,"2023":4303}},{"name":"井細田","operator":"伊豆箱根鉄道","line":"大雄山線","lat":35.268969999999996,"lng":139.157395,"yearly":{"2018":3479,"2019":3481,"2020":3010,"2021":3167,"2022":3294,"2023":3291}},{"name":"緑町","operator":"伊豆箱根鉄道","line":"大雄山線","lat":35.25927,"lng":139.15861,"yearly":{"2018":513,"2019":516,"2020":417,"2021":442,"2022":520,"2023":552}},{"name":"相模沼田","operator":"伊豆箱根鉄道","line":"大雄山線","lat":35.292345,"lng":139.133905,"yearly":{"2018":2939,"2019":2900,"2020":2192,"2021":2324,"2022":2452,"2023":2587}},{"name":"五百羅漢","operator":"伊豆箱根鉄道","line":"大雄山線","lat":35.275165,"lng":139.15555999999998,"yearly":{"2018":1472,"2019":1442,"2020":1110,"2021":1215,"2022":1316,"2023":1352}},{"name":"塚原","operator":"伊豆箱根鉄道","line":"大雄山線","lat":35.301345,"lng":139.12672,"yearly":{"2018":2327,"2019":2240,"2020":1679,"2021":1817,"2022":1893,"2023":1999}},{"name":"飯田岡","operator":"伊豆箱根鉄道","line":"大雄山線","lat":35.287904999999995,"lng":139.13932,"yearly":{"2018":1794,"2019":1768,"2020":1376,"2021":1527,"2022":1709,"2023":1817}},{"name":"富士フイルム前","operator":"伊豆箱根鉄道","line":"大雄山線","lat":35.317703333333334,"lng":139.10951,"yearly":{"2018":1343,"2019":1309,"2020":1045,"2021":1127,"2022":1216,"2023":1301}},{"name":"いよ立花","operator":"伊予鉄道","line":"横河原線","lat":33.827825000000004,"lng":132.772955,"yearly":{"2018":2257,"2019":2246,"2020":1862,"2021":1828,"2022":1846,"2023":1980}},{"name":"久米","operator":"伊予鉄道","line":"横河原線","lat":33.816230000000004,"lng":132.80400500000002,"yearly":{"2018":2827,"2019":2787,"2020":2193,"2021":2080,"2022":2156,"2023":2255}},{"name":"福音寺","operator":"伊予鉄道","line":"横河原線","lat":33.822535,"lng":132.7889,"yearly":{"2018":1710,"2019":1698,"2020":1432,"2021":1455,"2022":1613,"2023":1707}},{"name":"横河原","operator":"伊予鉄道","line":"横河原線","lat":33.80342,"lng":132.88422,"yearly":{"2018":1300,"2019":1338,"2020":1123,"2021":1093,"2022":1086,"2023":1130}},{"name":"牛渕","operator":"伊予鉄道","line":"横河原線","lat":33.795204999999996,"lng":132.856175,"yearly":{"2018":230,"2019":237,"2020":203,"2021":214,"2022":209,"2023":233}},{"name":"愛大医学部南口","operator":"伊予鉄道","line":"横河原線","lat":33.798095,"lng":132.87895,"yearly":{"2018":1290,"2019":1316,"2020":1099,"2021":1121,"2022":1192,"2023":1264}},{"name":"牛渕団地前","operator":"伊予鉄道","line":"横河原線","lat":33.797709999999995,"lng":132.84625499999999,"yearly":{"2018":945,"2019":876,"2020":714,"2021":745,"2022":774,"2023":817}},{"name":"平井","operator":"伊予鉄道","line":"横河原線","lat":33.808710000000005,"lng":132.82868000000002,"yearly":{"2018":1000,"2019":981,"2020":761,"2021":780,"2022":833,"2023":891}},{"name":"田窪","operator":"伊予鉄道","line":"横河原線","lat":33.79275,"lng":132.865735,"yearly":{"2018":791,"2019":797,"2020":673,"2021":660,"2022":662,"2023":711}},{"name":"鷹ノ子","operator":"伊予鉄道","line":"横河原線","lat":33.812525,"lng":132.815345,"yearly":{"2018":1048,"2019":1072,"2020":884,"2021":859,"2022":851,"2023":933}},{"name":"松山市","operator":"伊予鉄道","line":"横河原線","lat":33.83563,"lng":132.76184999999998,"yearly":{"2018":0,"2019":0,"2020":0,"2021":0,"2022":0,"2023":0}},{"name":"石手川公園","operator":"伊予鉄道","line":"横河原線","lat":33.831315000000004,"lng":132.76933,"yearly":{"2018":454,"2019":481,"2020":428,"2021":427,"2022":481,"2023":516}},{"name":"北久米","operator":"伊予鉄道","line":"横河原線","lat":33.81927,"lng":132.798685,"yearly":{"2018":1220,"2019":1269,"2020":1069,"2021":1114,"2022":1160,"2023":1217}},{"name":"見奈良","operator":"伊予鉄道","line":"横河原線","lat":33.79304666666667,"lng":132.87367666666668,"yearly":{"2018":672,"2019":645,"2020":542,"2021":570,"2022":615,"2023":663}},{"name":"梅本","operator":"伊予鉄道","line":"横河原線","lat":33.80122,"lng":132.83902999999998,"yearly":{"2018":1599,"2019":1597,"2020":1305,"2021":1275,"2022":1350,"2023":1457}},{"name":"南堀端","operator":"伊予鉄道","line":"花園線","lat":33.839439999999996,"lng":132.761255,"yearly":{"2018":0,"2019":0,"2020":0,"2021":0,"2022":0,"2023":0}},{"name":"松山市駅","operator":"伊予鉄道","line":"花園線","lat":33.836110000000005,"lng":132.76286,"yearly":{"2018":8346,"2019":8012,"2020":5156,"2021":5473,"2022":6541,"2023":7301}},{"name":"松山市","operator":"伊予鉄道","line":"郡中線","lat":33.83563,"lng":132.76184999999998,"yearly":{"2018":0,"2019":0,"2020":0,"2021":0,"2022":0,"2023":0}},{"name":"余戸","operator":"伊予鉄道","line":"郡中線","lat":33.816255,"lng":132.733905,"yearly":{"2018":2502,"2019":2496,"2020":2007,"2021":2000,"2022":2140,"2023":2275}},{"name":"土橋","operator":"伊予鉄道","line":"郡中線","lat":33.83233,"lng":132.75597,"yearly":{"2018":973,"2019":989,"2020":844,"2021":888,"2022":923,"2023":965}},{"name":"岡田","operator":"伊予鉄道","line":"郡中線","lat":33.799165,"lng":132.72436,"yearly":{"2018":954,"2019":970,"2020":777,"2021":806,"2022":854,"2023":883}},{"name":"鎌田","operator":"伊予鉄道","line":"郡中線","lat":33.81012,"lng":132.7299,"yearly":{"2018":1052,"2019":1098,"2020":952,"2021":926,"2022":951,"2023":1005}},{"name":"古泉","operator":"伊予鉄道","line":"郡中線","lat":33.792485,"lng":132.71711499999998,"yearly":{"2018":2383,"2019":2346,"2020":1787,"2021":1997,"2022":2121,"2023":2252}},{"name":"土居田","operator":"伊予鉄道","line":"郡中線","lat":33.8241,"lng":132.7441,"yearly":{"2018":2450,"2019":2429,"2020":1976,"2021":2020,"2022":2060,"2023":2192}},{"name":"松前","operator":"伊予鉄道","line":"郡中線","lat":33.78591,"lng":132.70499999999998,"yearly":{"2018":1052,"2019":1039,"2020":894,"2021":838,"2022":854,"2023":918}},{"name":"地蔵町","operator":"伊予鉄道","line":"郡中線","lat":33.780005,"lng":132.70433500000001,"yearly":{"2018":540,"2019":559,"2020":465,"2021":471,"2022":469,"2023":524}},{"name":"郡中","operator":"伊予鉄道","line":"郡中線","lat":33.760705,"lng":132.70414499999998,"yearly":{"2018":1058,"2019":1032,"2020":854,"2021":874,"2022":925,"2023":1016}},{"name":"郡中港","operator":"伊予鉄道","line":"郡中線","lat":33.75632,"lng":132.702145,"yearly":{"2018":1051,"2019":1017,"2020":835,"2021":854,"2022":917,"2023":955}},{"name":"新川","operator":"伊予鉄道","line":"郡中線","lat":33.77216,"lng":132.70440000000002,"yearly":{"2018":684,"2019":690,"2020":572,"2021":589,"2022":622,"2023":665}},{"name":"古町","operator":"伊予鉄道","line":"高浜線","lat":33.84697,"lng":132.75500499999998,"yearly":{"2018":4900,"2019":4891,"2020":3682,"2021":3828,"2022":4148,"2023":4502}},{"name":"松山市","operator":"伊予鉄道","line":"高浜線","lat":33.83563,"lng":132.76184999999998,"yearly":{"2018":19686,"2019":19707,"2020":15310,"2021":15286,"2022":16305,"2023":17439}},{"name":"大手町","operator":"伊予鉄道","line":"高浜線","lat":33.839745,"lng":132.75522999999998,"yearly":{"2018":2792,"2019":2823,"2020":2199,"2021":2137,"2022":2270,"2023":2499}},{"name":"西衣山","operator":"伊予鉄道","line":"高浜線","lat":33.85038,"lng":132.73401,"yearly":{"2018":1222,"2019":1272,"2020":1073,"2021":1135,"2022":1163,"2023":1237}},{"name":"衣山","operator":"伊予鉄道","line":"高浜線","lat":33.852450000000005,"lng":132.743985,"yearly":{"2018":2251,"2019":2251,"2020":1863,"2021":1840,"2022":1932,"2023":2087}},{"name":"三津","operator":"伊予鉄道","line":"高浜線","lat":33.863775000000004,"lng":132.719955,"yearly":{"2018":2011,"2019":2007,"2020":1576,"2021":1580,"2022":1648,"2023":1731}},{"name":"山西","operator":"伊予鉄道","line":"高浜線","lat":33.85563,"lng":132.724165,"yearly":{"2018":2393,"2019":2346,"2020":1999,"2021":2042,"2022":2106,"2023":2179}},{"name":"梅津寺","operator":"伊予鉄道","line":"高浜線","lat":33.87462,"lng":132.70763,"yearly":{"2018":328,"2019":337,"2020":281,"2021":272,"2022":289,"2023":317}},{"name":"高浜","operator":"伊予鉄道","line":"高浜線","lat":33.883444999999995,"lng":132.70219,"yearly":{"2018":1255,"2019":1187,"2020":848,"2021":823,"2022":928,"2023":1022}},{"name":"港山","operator":"伊予鉄道","line":"高浜線","lat":33.869575,"lng":132.7134,"yearly":{"2018":323,"2019":321,"2020":264,"2021":268,"2022":286,"2023":276}},{"name":"本町一丁目","operator":"伊予鉄道","line":"城南線","lat":33.840755,"lng":132.75865,"yearly":{"2018":0,"2019":0,"2020":0,"2021":0,"2022":0,"2023":0}},{"name":"市役所前","operator":"伊予鉄道","line":"城南線","lat":33.83995,"lng":132.764625,"yearly":{"2018":824,"2019":791,"2020":509,"2021":532,"2022":637,"2023":710}},{"name":"南町","operator":"伊予鉄道","line":"城南線","lat":33.84739,"lng":132.77952,"yearly":{"2018":1152,"2019":1106,"2020":712,"2021":745,"2022":891,"2023":994}},{"name":"大街道","operator":"伊予鉄道","line":"城南線","lat":33.84125,"lng":132.76966499999997,"yearly":{"2018":5406,"2019":5189,"2020":3340,"2021":3494,"2022":4178,"2023":4662}},{"name":"道後温泉","operator":"伊予鉄道","line":"城南線","lat":33.850355,"lng":132.785045,"yearly":{"2018":3208,"2019":3079,"2020":1982,"2021":2074,"2022":2479,"2023":2767}},{"name":"勝山町","operator":"伊予鉄道","line":"城南線","lat":33.841750000000005,"lng":132.77482,"yearly":{"2018":1707,"2019":1638,"2020":1055,"2021":1103,"2022":1319,"2023":1472}},{"name":"南堀端","operator":"伊予鉄道","line":"城南線","lat":33.839439999999996,"lng":132.761255,"yearly":{"2018":717,"2019":688,"2020":443,"2021":463,"2022":554,"2023":642}},{"name":"上一万","operator":"伊予鉄道","line":"城南線","lat":33.84681,"lng":132.77543500000002,"yearly":{"2018":1580,"2019":1517,"2020":976,"2021":1021,"2022":1221,"2023":1363}},{"name":"道後公園","operator":"伊予鉄道","line":"城南線","lat":33.848335000000006,"lng":132.78495,"yearly":{"2018":745,"2019":715,"2020":460,"2021":481,"2022":575,"2023":642}},{"name":"平和通一丁目","operator":"伊予鉄道","line":"連絡線","lat":33.847715,"lng":132.77445,"yearly":{"2018":0,"2019":0,"2020":0,"2021":0,"2022":0,"2023":0}},{"name":"警察署前","operator":"伊予鉄道","line":"城南線","lat":33.844620000000006,"lng":132.77536500000002,"yearly":{"2018":1069,"2019":1026,"2020":661,"2021":691,"2022":826,"2023":922}},{"name":"県庁前","operator":"伊予鉄道","line":"城南線","lat":33.841170000000005,"lng":132.766345,"yearly":{"2018":931,"2019":893,"2020":575,"2021":602,"2022":719,"2023":803}},{"name":"平和通一丁目","operator":"伊予鉄道","line":"城北線","lat":33.847715,"lng":132.77445,"yearly":{"2018":352,"2019":338,"2020":218,"2021":228,"2022":272,"2023":304}},{"name":"木屋町","operator":"伊予鉄道","line":"城北線","lat":33.853425,"lng":132.76098000000002,"yearly":{"2018":673,"2019":646,"2020":416,"2021":435,"2022":520,"2023":581}},{"name":"鉄砲町","operator":"伊予鉄道","line":"城北線","lat":33.848285000000004,"lng":132.768915,"yearly":{"2018":768,"2019":738,"2020":475,"2021":497,"2022":594,"2023":663}},{"name":"高砂町","operator":"伊予鉄道","line":"城北線","lat":33.851749999999996,"lng":132.762395,"yearly":{"2018":329,"2019":316,"2020":203,"2021":212,"2022":254,"2023":283}},{"name":"萱町六丁目","operator":"伊予鉄道","line":"城北線","lat":33.85178,"lng":132.75621999999998,"yearly":{"2018":384,"2019":369,"2020":237,"2021":248,"2022":297,"2023":331}},{"name":"古町","operator":"伊予鉄道","line":"城北線","lat":33.84697,"lng":132.75500499999998,"yearly":{"2018":0,"2019":0,"2020":0,"2021":0,"2022":0,"2023":0}},{"name":"赤十字病院前","operator":"伊予鉄道","line":"城北線","lat":33.848115,"lng":132.77238,"yearly":{"2018":1549,"2019":1486,"2020":957,"2021":1001,"2022":1197,"2023":1335}},{"name":"清水町","operator":"伊予鉄道","line":"城北線","lat":33.84924,"lng":132.76425999999998,"yearly":{"2018":459,"2019":441,"2020":284,"2021":297,"2022":355,"2023":396}},{"name":"本町六丁目","operator":"伊予鉄道","line":"城北線","lat":33.85346,"lng":132.75823,"yearly":{"2018":1022,"2019":981,"2020":631,"2021":660,"2022":790,"2023":881}},{"name":"古町","operator":"伊予鉄道","line":"大手町線","lat":33.84697,"lng":132.75500499999998,"yearly":{"2018":0,"2019":0,"2020":0,"2021":0,"2022":0,"2023":0}},{"name":"大手町駅前","operator":"伊予鉄道","line":"大手町線","lat":33.840315000000004,"lng":132.75547,"yearly":{"2018":578,"2019":555,"2020":357,"2021":374,"2022":447,"2023":499}},{"name":"JR松山駅前","operator":"伊予鉄道","line":"大手町線","lat":33.840725000000006,"lng":132.75234,"yearly":{"2018":4127,"2019":3961,"2020":2550,"2021":2668,"2022":3190,"2023":3559}},{"name":"宮田町","operator":"伊予鉄道","line":"大手町線","lat":33.84392,"lng":132.75261,"yearly":{"2018":950,"2019":912,"2020":587,"2021":614,"2022":735,"2023":820}},{"name":"西堀端","operator":"伊予鉄道","line":"大手町線","lat":33.8403,"lng":132.758085,"yearly":{"2018":554,"2019":532,"2020":343,"2021":358,"2022":429,"2023":478}},{"name":"本町一丁目","operator":"伊予鉄道","line":"本町線","lat":33.840755,"lng":132.75865,"yearly":{"2018":0,"2019":0,"2020":0,"2021":0,"2022":0,"2023":0}},{"name":"本町五丁目","operator":"伊予鉄道","line":"本町線","lat":33.850804999999994,"lng":132.75875,"yearly":{"2018":79,"2019":76,"2020":49,"2021":26,"2022":31,"2023":27}},{"name":"本町四丁目","operator":"伊予鉄道","line":"本町線","lat":33.848055,"lng":132.75873,"yearly":{"2018":75,"2019":72,"2020":46,"2021":23,"2022":28,"2023":20}},{"name":"本町六丁目","operator":"伊予鉄道","line":"本町線","lat":33.85313,"lng":132.75884,"yearly":{"2018":1022,"2019":981,"2020":631,"2021":660,"2022":790,"2023":881}},{"name":"本町三丁目","operator":"伊予鉄道","line":"本町線","lat":33.845124999999996,"lng":132.758695,"yearly":{"2018":79,"2019":76,"2020":49,"2021":26,"2022":31,"2023":27}},{"name":"総社","operator":"井原鉄道","line":"井原線","lat":34.67418000000001,"lng":133.738155,"yearly":{"2018":202,"2019":202,"2020":202,"2021":202,"2022":202,"2023":202}},{"name":"清音","operator":"井原鉄道","line":"井原線","lat":34.644035,"lng":133.733505,"yearly":{"2018":1424,"2019":1424,"2020":1424,"2021":1424,"2022":1424,"2023":1424}},{"name":"神辺","operator":"井原鉄道","line":"井原線","lat":34.537440000000004,"lng":133.37866000000002,"yearly":{"2018":503,"2019":503,"2020":503,"2021":503,"2022":503,"2023":503}},{"name":"御領","operator":"井原鉄道","line":"井原線","lat":34.5646925,"lng":133.40221,"yearly":{"2018":93,"2019":93,"2020":93,"2021":93,"2022":93,"2023":93}},{"name":"いずえ","operator":"井原鉄道","line":"井原線","lat":34.587975,"lng":133.450645,"yearly":{"2018":56,"2019":56,"2020":56,"2021":56,"2022":56,"2023":56}},{"name":"吉備真備","operator":"井原鉄道","line":"井原線","lat":34.62681666666666,"lng":133.69217,"yearly":{"2018":514,"2019":514,"2020":514,"2021":514,"2022":514,"2023":514}},{"name":"備中呉妹","operator":"井原鉄道","line":"井原線","lat":34.62163,"lng":133.6618475,"yearly":{"2018":87,"2019":87,"2020":87,"2021":87,"2022":87,"2023":87}},{"name":"小田","operator":"井原鉄道","line":"井原線","lat":34.606015,"lng":133.54241000000002,"yearly":{"2018":100,"2019":100,"2020":100,"2021":100,"2022":100,"2023":100}},{"name":"矢掛","operator":"井原鉄道","line":"井原線","lat":34.629305,"lng":133.590235,"yearly":{"2018":733,"2019":733,"2020":733,"2021":733,"2022":733,"2023":733}},{"name":"湯野","operator":"井原鉄道","line":"井原線","lat":34.55286,"lng":133.387,"yearly":{"2018":132,"2019":132,"2020":132,"2021":132,"2022":132,"2023":132}},{"name":"子守唄の里高屋","operator":"井原鉄道","line":"井原線","lat":34.58173,"lng":133.433325,"yearly":{"2018":192,"2019":192,"2020":192,"2021":192,"2022":192,"2023":192}},{"name":"三谷","operator":"井原鉄道","line":"井原線","lat":34.61643,"lng":133.619625,"yearly":{"2018":65,"2019":65,"2020":65,"2021":65,"2022":65,"2023":65}},{"name":"井原","operator":"井原鉄道","line":"井原線","lat":34.592775,"lng":133.46908000000002,"yearly":{"2018":801,"2019":801,"2020":801,"2021":801,"2022":801,"2023":801}},{"name":"早雲の里荏原","operator":"井原鉄道","line":"井原線","lat":34.59668,"lng":133.50779,"yearly":{"2018":209,"2019":209,"2020":209,"2021":209,"2022":209,"2023":209}},{"name":"川辺宿","operator":"井原鉄道","line":"井原線","lat":34.63241,"lng":133.71501999999998,"yearly":{"2018":189,"2019":189,"2020":189,"2021":189,"2022":189,"2023":189}},{"name":"川跡","operator":"一畑電車","line":"大社線","lat":35.395145,"lng":132.77641,"yearly":{"2018":0,"2019":0,"2020":0,"2021":0,"2022":0,"2023":0}},{"name":"遥堪","operator":"一畑電車","line":"大社線","lat":35.38922,"lng":132.72629,"yearly":{"2018":33,"2019":43,"2020":35,"2021":48,"2022":36,"2023":43}},{"name":"高浜","operator":"一畑電車","line":"大社線","lat":35.39072,"lng":132.74668666666665,"yearly":{"2018":92,"2019":125,"2020":84,"2021":92,"2022":90,"2023":99}},{"name":"浜山公園北口","operator":"一畑電車","line":"大社線","lat":35.389070000000004,"lng":132.708135,"yearly":{"2018":212,"2019":194,"2020":159,"2021":115,"2022":148,"2023":134}},{"name":"出雲大社前","operator":"一畑電車","line":"大社線","lat":35.393265,"lng":132.68766,"yearly":{"2018":848,"2019":803,"2020":432,"2021":479,"2022":701,"2023":951}},{"name":"旅伏","operator":"一畑電車","line":"北松江線","lat":35.421189999999996,"lng":132.80686,"yearly":{"2018":160,"2019":145,"2020":122,"2021":132,"2022":147,"2023":133}},{"name":"伊野灘","operator":"一畑電車","line":"北松江線","lat":35.461245,"lng":132.90088500000002,"yearly":{"2018":57,"2019":57,"2020":38,"2021":22,"2022":24,"2023":25}},{"name":"松江フォーゲルパーク","operator":"一畑電車","line":"北松江線","lat":35.474905,"lng":132.94369999999998,"yearly":{"2018":68,"2019":62,"2020":31,"2021":21,"2022":45,"2023":71}},{"name":"園","operator":"一畑電車","line":"北松江線","lat":35.456135,"lng":132.86813,"yearly":{"2018":65,"2019":60,"2020":40,"2021":43,"2022":41,"2023":49}},{"name":"湖遊館新駅","operator":"一畑電車","line":"北松江線","lat":35.452685,"lng":132.862145,"yearly":{"2018":27,"2019":31,"2020":34,"2021":90,"2022":84,"2023":62}},{"name":"川跡","operator":"一畑電車","line":"北松江線","lat":35.395145,"lng":132.77641,"yearly":{"2018":417,"2019":435,"2020":277,"2021":410,"2022":459,"2023":545}},{"name":"朝日ヶ丘","operator":"一畑電車","line":"北松江線","lat":35.480956666666664,"lng":132.98778000000001,"yearly":{"2018":198,"2019":182,"2020":138,"2021":177,"2022":198,"2023":137}},{"name":"長江","operator":"一畑電車","line":"北松江線","lat":35.479839999999996,"lng":132.974315,"yearly":{"2018":43,"2019":49,"2020":38,"2021":36,"2022":38,"2023":34}},{"name":"布崎","operator":"一畑電車","line":"北松江線","lat":35.450235,"lng":132.855005,"yearly":{"2018":139,"2019":131,"2020":113,"2021":122,"2022":108,"2023":114}},{"name":"松江しんじ湖温泉","operator":"一畑電車","line":"北松江線","lat":35.467079999999996,"lng":133.04539499999998,"yearly":{"2018":1815,"2019":1848,"2020":1199,"2021":1271,"2022":1480,"2023":1610}},{"name":"大津町","operator":"一畑電車","line":"北松江線","lat":35.369095,"lng":132.77432499999998,"yearly":{"2018":269,"2019":298,"2020":229,"2021":231,"2022":285,"2023":255}},{"name":"高ノ宮","operator":"一畑電車","line":"北松江線","lat":35.4718,"lng":132.930435,"yearly":{"2018":23,"2019":24,"2020":17,"2021":15,"2022":11,"2023":13}},{"name":"松江イングリッシュガーデン前","operator":"一畑電車","line":"北松江線","lat":35.47735,"lng":133.003985,"yearly":{"2018":103,"2019":110,"2020":71,"2021":85,"2022":105,"2023":88}},{"name":"武志","operator":"一畑電車","line":"北松江線","lat":35.388000000000005,"lng":132.77327000000002,"yearly":{"2018":51,"2019":73,"2020":48,"2021":55,"2022":64,"2023":70}},{"name":"美談","operator":"一畑電車","line":"北松江線","lat":35.412555,"lng":132.79810500000002,"yearly":{"2018":46,"2019":34,"2020":16,"2021":15,"2022":31,"2023":30}},{"name":"雲州平田","operator":"一畑電車","line":"北松江線","lat":35.43231,"lng":132.82368,"yearly":{"2018":1144,"2019":1184,"2020":892,"2021":936,"2022":997,"2023":944}},{"name":"出雲科学館パークタウン前","operator":"一畑電車","line":"北松江線","lat":35.363065,"lng":132.76650999999998,"yearly":{"2018":50,"2019":43,"2020":28,"2021":65,"2022":43,"2023":25}},{"name":"大寺","operator":"一畑電車","line":"北松江線","lat":35.40442,"lng":132.78743500000002,"yearly":{"2018":15,"2019":17,"2020":9,"2021":15,"2022":23,"2023":14}},{"name":"秋鹿町","operator":"一畑電車","line":"北松江線","lat":35.47723,"lng":132.95673,"yearly":{"2018":158,"2019":171,"2020":126,"2021":105,"2022":90,"2023":119}},{"name":"一畑口","operator":"一畑電車","line":"北松江線","lat":35.4646,"lng":132.882845,"yearly":{"2018":154,"2019":103,"2020":67,"2021":176,"2022":149,"2023":154}},{"name":"津ノ森","operator":"一畑電車","line":"北松江線","lat":35.466350000000006,"lng":132.91905000000003,"yearly":{"2018":151,"2019":195,"2020":160,"2021":118,"2022":124,"2023":90}},{"name":"電鉄出雲市","operator":"一畑電車","line":"北松江線","lat":35.361145,"lng":132.757805,"yearly":{"2018":1546,"2019":1526,"2020":1089,"2021":1151,"2022":1395,"2023":1512}},{"name":"木野","operator":"叡山電鉄","line":"鞍馬線","lat":35.071095,"lng":135.77653500000002,"yearly":{"2018":393,"2019":393,"2020":252,"2021":393,"2022":393,"2023":393}},{"name":"市原","operator":"叡山電鉄","line":"鞍馬線","lat":35.08816,"lng":135.76305,"yearly":{"2018":766,"2019":766,"2020":490,"2021":766,"2022":766,"2023":766}},{"name":"八幡前","operator":"叡山電鉄","line":"鞍馬線","lat":35.06617,"lng":135.792445,"yearly":{"2018":625,"2019":625,"2020":208,"2021":625,"2022":625,"2023":625}},{"name":"岩倉","operator":"叡山電鉄","line":"鞍馬線","lat":35.071213333333326,"lng":135.78637333333333,"yearly":{"2018":1284,"2019":1284,"2020":822,"2021":1284,"2022":1284,"2023":1284}},{"name":"京都精華大前","operator":"叡山電鉄","line":"鞍馬線","lat":35.073055,"lng":135.76891,"yearly":{"2018":1069,"2019":1069,"2020":684,"2021":1069,"2022":1069,"2023":1069}},{"name":"宝ヶ池","operator":"叡山電鉄","line":"鞍馬線","lat":35.058095,"lng":135.792315,"yearly":{"2018":0,"2019":0,"2020":0,"2021":0,"2022":0,"2023":0}},{"name":"鞍馬","operator":"叡山電鉄","line":"鞍馬線","lat":35.112899999999996,"lng":135.772255,"yearly":{"2018":896,"2019":896,"2020":573,"2021":896,"2022":896,"2023":896}},{"name":"二軒茶屋","operator":"叡山電鉄","line":"鞍馬線","lat":35.07803,"lng":135.765815,"yearly":{"2018":1356,"2019":1356,"2020":868,"2021":1356,"2022":1356,"2023":1356}},{"name":"二ノ瀬","operator":"叡山電鉄","line":"鞍馬線","lat":35.097625,"lng":135.76298500000001,"yearly":{"2018":56,"2019":56,"2020":36,"2021":56,"2022":56,"2023":56}},{"name":"貴船口","operator":"叡山電鉄","line":"鞍馬線","lat":35.105868,"lng":135.7636,"yearly":{"2018":703,"2019":703,"2020":450,"2021":703,"2022":703,"2023":703}},{"name":"修学院","operator":"叡山電鉄","line":"叡山本線","lat":35.050005,"lng":135.7903,"yearly":{"2018":2892,"2019":2892,"2020":1851,"2021":2892,"2022":2892,"2023":2892}},{"name":"八瀬比叡山口","operator":"叡山電鉄","line":"叡山本線","lat":35.06512,"lng":135.80834499999997,"yearly":{"2018":788,"2019":788,"2020":504,"2021":788,"2022":788,"2023":788}},{"name":"一乗寺","operator":"叡山電鉄","line":"叡山本線","lat":35.044380000000004,"lng":135.78752,"yearly":{"2018":2272,"2019":2272,"2020":1454,"2021":2272,"2022":2272,"2023":2272}},{"name":"出町柳","operator":"叡山電鉄","line":"叡山本線","lat":35.030919999999995,"lng":135.773545,"yearly":{"2018":10900,"2019":10900,"2020":6976,"2021":10900,"2022":10900,"2023":10900}},{"name":"茶山・京都芸術大学","operator":"叡山電鉄","line":"叡山本線","lat":35.038394999999994,"lng":135.78465,"yearly":{"2018":1778,"2019":1778,"2020":1138,"2021":1778,"2022":1778,"2023":1778}},{"name":"三宅八幡","operator":"叡山電鉄","line":"叡山本線","lat":35.062375,"lng":135.79619,"yearly":{"2018":583,"2019":583,"2020":373,"2021":583,"2022":583,"2023":583}},{"name":"元田中","operator":"叡山電鉄","line":"叡山本線","lat":35.035015,"lng":135.78163,"yearly":{"2018":906,"2019":906,"2020":580,"2021":906,"2022":906,"2023":906}},{"name":"宝ヶ池","operator":"叡山電鉄","line":"叡山本線","lat":35.05809,"lng":135.79246,"yearly":{"2018":795,"2019":795,"2020":509,"2021":795,"2022":795,"2023":795}},{"name":"遠州小松","operator":"遠州鉄道","line":"鉄道線","lat":34.78423,"lng":137.77784,"yearly":{"2018":2122,"2019":2082,"2020":1420,"2021":1518,"2022":1567,"2023":1700}},{"name":"上島","operator":"遠州鉄道","line":"鉄道線","lat":34.741545,"lng":137.74557,"yearly":{"2018":3465,"2019":3494,"2020":2474,"2021":2677,"2022":2959,"2023":3232}},{"name":"浜北","operator":"遠州鉄道","line":"鉄道線","lat":34.79133,"lng":137.78434,"yearly":{"2018":3558,"2019":3527,"2020":2578,"2021":2771,"2022":3068,"2023":3351}},{"name":"遠州芝本","operator":"遠州鉄道","line":"鉄道線","lat":34.824055,"lng":137.798745,"yearly":{"2018":1364,"2019":1408,"2020":1063,"2021":1109,"2022":1190,"2023":1265}},{"name":"自動車学校前","operator":"遠州鉄道","line":"鉄道線","lat":34.747605,"lng":137.751635,"yearly":{"2018":1960,"2019":2010,"2020":1633,"2021":1684,"2022":1771,"2023":1910}},{"name":"八幡","operator":"遠州鉄道","line":"鉄道線","lat":34.71707,"lng":137.73599,"yearly":{"2018":2167,"2019":2179,"2020":1472,"2021":1516,"2022":1680,"2023":1916}},{"name":"遠州病院","operator":"遠州鉄道","line":"鉄道線","lat":34.710585,"lng":137.73343,"yearly":{"2018":2014,"2019":2006,"2020":1611,"2021":1757,"2022":1912,"2023":2159}},{"name":"遠州岩水寺","operator":"遠州鉄道","line":"鉄道線","lat":34.834355,"lng":137.80113999999998,"yearly":{"2018":809,"2019":823,"2020":578,"2021":621,"2022":678,"2023":784}},{"name":"新浜松","operator":"遠州鉄道","line":"鉄道線","lat":34.70341,"lng":137.73246,"yearly":{"2018":16457,"2019":16535,"2020":10984,"2021":11768,"2022":13449,"2023":14957}},{"name":"さぎの宮","operator":"遠州鉄道","line":"鉄道線","lat":34.757275,"lng":137.75732,"yearly":{"2018":2273,"2019":2276,"2020":1651,"2021":1721,"2022":1859,"2023":2012}},{"name":"積志","operator":"遠州鉄道","line":"鉄道線","lat":34.76808,"lng":137.76341000000002,"yearly":{"2018":1869,"2019":1891,"2020":1411,"2021":1476,"2022":1606,"2023":1770}},{"name":"美薗中央公園","operator":"遠州鉄道","line":"鉄道線","lat":34.798159999999996,"lng":137.78976,"yearly":{"2018":2157,"2019":2128,"2020":1565,"2021":1734,"2022":1862,"2023":1964}},{"name":"遠州西ヶ崎","operator":"遠州鉄道","line":"鉄道線","lat":34.77678,"lng":137.7739,"yearly":{"2018":1773,"2019":1790,"2020":1342,"2021":1439,"2022":1622,"2023":1836}},{"name":"遠州小林","operator":"遠州鉄道","line":"鉄道線","lat":34.808345,"lng":137.79555,"yearly":{"2018":2682,"2019":2667,"2020":2132,"2021":2256,"2022":2353,"2023":2427}},{"name":"助信","operator":"遠州鉄道","line":"鉄道線","lat":34.723600000000005,"lng":137.73846500000002,"yearly":{"2018":2672,"2019":2720,"2020":1988,"2021":1979,"2022":2129,"2023":2333}},{"name":"曳馬","operator":"遠州鉄道","line":"鉄道線","lat":34.733215,"lng":137.74146,"yearly":{"2018":2611,"2019":2671,"2020":1904,"2021":2043,"2022":2219,"2023":2442}},{"name":"第一通り","operator":"遠州鉄道","line":"鉄道線","lat":34.707555,"lng":137.732855,"yearly":{"2018":3132,"2019":3174,"2020":2163,"2021":2359,"2022":2550,"2023":2809}},{"name":"西鹿島","operator":"遠州鉄道","line":"鉄道線","lat":34.84675,"lng":137.807955,"yearly":{"2018":3469,"2019":3416,"2020":2372,"2021":2189,"2022":2842,"2023":3044}},{"name":"みなとみらい","operator":"横浜高速鉄道","line":"みなとみらい21線","lat":35.457674999999995,"lng":139.63246,"yearly":{"2018":88175,"2019":90677,"2020":53491,"2021":60292,"2022":73680,"2023":82564}},{"name":"元町・中華街","operator":"横浜高速鉄道","line":"みなとみらい21線","lat":35.442305000000005,"lng":139.65073999999998,"yearly":{"2018":64569,"2019":63291,"2020":39611,"2021":45066,"2022":54706,"2023":59017}},{"name":"新高島","operator":"横浜高速鉄道","line":"みなとみらい21線","lat":35.461955,"lng":139.626485,"yearly":{"2018":6290,"2019":7039,"2020":5599,"2021":5807,"2022":8261,"2023":10685}},{"name":"馬車道","operator":"横浜高速鉄道","line":"みなとみらい21線","lat":35.450075,"lng":139.6362,"yearly":{"2018":40037,"2019":41627,"2020":31801,"2021":31131,"2022":35619,"2023":41286}},{"name":"日本大通り","operator":"横浜高速鉄道","line":"みなとみらい21線","lat":35.446795,"lng":139.64272499999998,"yearly":{"2018":27335,"2019":27025,"2020":16974,"2021":20192,"2022":24497,"2023":26788}},{"name":"横浜","operator":"横浜高速鉄道","line":"みなとみらい21線","lat":35.466435000000004,"lng":139.62234999999998,"yearly":{"2018":367023,"2019":0,"2020":0,"2021":0,"2022":0,"2023":0}},{"name":"吉野町","operator":"横浜市","line":"1号線","lat":35.435390000000005,"lng":139.61856666666668,"yearly":{"2018":15707,"2019":16066,"2020":13030,"2021":14330,"2022":15759,"2023":16564}},{"name":"阪東橋","operator":"横浜市","line":"1号線","lat":35.437540000000006,"lng":139.62497,"yearly":{"2018":21442,"2019":21344,"2020":17908,"2021":19476,"2022":21424,"2023":22424}},{"name":"港南中央","operator":"横浜市","line":"1号線","lat":35.40123,"lng":139.59121499999998,"yearly":{"2018":19042,"2019":19627,"2020":15323,"2021":16219,"2022":17242,"2023":17809}},{"name":"伊勢佐木長者町","operator":"横浜市","line":"1号線","lat":35.440945,"lng":139.63266,"yearly":{"2018":16950,"2019":16734,"2020":12931,"2021":14658,"2022":16896,"2023":18329}},{"name":"上大岡","operator":"横浜市","line":"1号線","lat":35.409205,"lng":139.59598,"yearly":{"2018":76600,"2019":73500,"2020":57119,"2021":62278,"2022":66227,"2023":67321}},{"name":"弘明寺","operator":"横浜市","line":"1号線","lat":35.422979999999995,"lng":139.60199749999998,"yearly":{"2018":20393,"2019":20278,"2020":15990,"2021":17149,"2022":18715,"2023":19497}},{"name":"蒔田","operator":"横浜市","line":"1号線","lat":35.43031,"lng":139.61052999999998,"yearly":{"2018":22560,"2019":22959,"2020":17384,"2021":18951,"2022":20819,"2023":21936}},{"name":"関内","operator":"横浜市","line":"1号線","lat":35.445769999999996,"lng":139.63602,"yearly":{"2018":0,"2019":0,"2020":0,"2021":0,"2022":0,"2023":0}},{"name":"湘南台","operator":"横浜市","line":"1号線","lat":35.39624,"lng":139.46612,"yearly":{"2018":49388,"2019":48023,"2020":34875,"2021":39650,"2022":43335,"2023":44402}},{"name":"踊場","operator":"横浜市","line":"1号線","lat":35.40555,"lng":139.51857666666666,"yearly":{"2018":18901,"2019":19146,"2020":14379,"2021":15539,"2022":16367,"2023":17097}},{"name":"舞岡","operator":"横浜市","line":"1号線","lat":35.402535,"lng":139.551265,"yearly":{"2018":5446,"2019":5667,"2020":4469,"2021":4659,"2022":5001,"2023":5130}},{"name":"上永谷","operator":"横浜市","line":"1号線","lat":35.40137,"lng":139.57279,"yearly":{"2018":37684,"2019":37146,"2020":29114,"2021":31275,"2022":33399,"2023":33521}},{"name":"下永谷","operator":"横浜市","line":"1号線","lat":35.40276,"lng":139.559045,"yearly":{"2018":11481,"2019":11360,"2020":8976,"2021":9762,"2022":10385,"2023":10397}},{"name":"中田","operator":"横浜市","line":"1号線","lat":35.411155,"lng":139.51121999999998,"yearly":{"2018":18592,"2019":18030,"2020":13887,"2021":14973,"2022":16156,"2023":16795}},{"name":"立場","operator":"横浜市","line":"1号線","lat":35.41438,"lng":139.5007,"yearly":{"2018":23757,"2019":22586,"2020":18217,"2021":19353,"2022":19661,"2023":20077}},{"name":"戸塚","operator":"横浜市","line":"1号線","lat":35.401089999999996,"lng":139.53489,"yearly":{"2018":90133,"2019":88836,"2020":63849,"2021":70441,"2022":77204,"2023":80540}},{"name":"下飯田","operator":"横浜市","line":"1号線","lat":35.403375,"lng":139.482885,"yearly":{"2018":6591,"2019":6571,"2020":5046,"2021":5279,"2022":5864,"2023":6311}},{"name":"仲町台","operator":"横浜市","line":"3号線","lat":35.535315,"lng":139.589515,"yearly":{"2018":33507,"2019":33642,"2020":23959,"2021":26309,"2022":29222,"2023":30465}},{"name":"高島町","operator":"横浜市","line":"3号線","lat":35.458695000000006,"lng":139.62365,"yearly":{"2018":10612,"2019":10680,"2020":7817,"2021":8109,"2022":9001,"2023":9518}},{"name":"北新横浜","operator":"横浜市","line":"3号線","lat":35.519215,"lng":139.61284999999998,"yearly":{"2018":12793,"2019":12471,"2020":10314,"2021":11098,"2022":11850,"2023":12262}},{"name":"三ツ沢上町","operator":"横浜市","line":"3号線","lat":35.47642,"lng":139.60553000000002,"yearly":{"2018":17264,"2019":16736,"2020":10721,"2021":12584,"2022":13549,"2023":13997}},{"name":"新羽","operator":"横浜市","line":"3号線","lat":35.527260000000005,"lng":139.61205333333334,"yearly":{"2018":21668,"2019":21430,"2020":17248,"2021":18550,"2022":19886,"2023":21180}},{"name":"岸根公園","operator":"横浜市","line":"3号線","lat":35.49551,"lng":139.616545,"yearly":{"2018":11530,"2019":11884,"2020":8976,"2021":10050,"2022":10462,"2023":10978}},{"name":"片倉町","operator":"横浜市","line":"3号線","lat":35.489999999999995,"lng":139.60643,"yearly":{"2018":23165,"2019":21979,"2020":16798,"2021":18456,"2022":19812,"2023":20510}},{"name":"三ツ沢下町","operator":"横浜市","line":"3号線","lat":35.476485,"lng":139.61521499999998,"yearly":{"2018":12614,"2019":12592,"2020":10049,"2021":10760,"2022":11509,"2023":11953}},{"name":"横浜","operator":"横浜市","line":"3号線","lat":35.465406,"lng":139.62014399999998,"yearly":{"2018":143618,"2019":144044,"2020":102344,"2021":112370,"2022":124525,"2023":122858}},{"name":"センター北","operator":"横浜市","line":"3号線","lat":35.553205,"lng":139.578215,"yearly":{"2018":61011,"2019":60889,"2020":43389,"2021":47833,"2022":51969,"2023":53839}},{"name":"新横浜","operator":"横浜市","line":"3号線","lat":35.509055000000004,"lng":139.617245,"yearly":{"2018":74018,"2019":72750,"2020":44852,"2021":51526,"2022":59696,"2023":70002}},{"name":"桜木町","operator":"横浜市","line":"3号線","lat":35.44963666666666,"lng":139.63074333333336,"yearly":{"2018":38924,"2019":39231,"2020":28992,"2021":33884,"2022":36881,"2023":39396}},{"name":"関内","operator":"横浜市","line":"3号線","lat":35.445769999999996,"lng":139.63602,"yearly":{"2018":46156,"2019":46816,"2020":32490,"2021":33545,"2022":36521,"2023":40382}},{"name":"センター南","operator":"横浜市","line":"3号線","lat":35.5451675,"lng":139.57421499999998,"yearly":{"2018":59840,"2019":58579,"2020":44343,"2021":48839,"2022":52369,"2023":53643}},{"name":"あざみ野","operator":"横浜市","line":"3号線","lat":35.567955,"lng":139.55415499999998,"yearly":{"2018":80605,"2019":80055,"2020":56266,"2021":62908,"2022":69080,"2023":72564}},{"name":"中川","operator":"横浜市","line":"3号線","lat":35.563085,"lng":139.56968,"yearly":{"2018":19185,"2019":18872,"2020":12926,"2021":14361,"2022":16092,"2023":17239}},{"name":"八景島","operator":"横浜シーサイドライン","line":"金沢シーサイドライン","lat":35.340895,"lng":139.64083,"yearly":{"2018":4938,"2019":4770,"2020":2690,"2021":3690,"2022":4242,"2023":4674}},{"name":"産業振興センター","operator":"横浜シーサイドライン","line":"金沢シーサイドライン","lat":35.353425,"lng":139.646325,"yearly":{"2018":4660,"2019":4621,"2020":3898,"2021":3992,"2022":4163,"2023":4335}},{"name":"野島公園","operator":"横浜シーサイドライン","line":"金沢シーサイドライン","lat":35.330595,"lng":139.631555,"yearly":{"2018":2880,"2019":2882,"2020":2780,"2021":3026,"2022":3288,"2023":3435}},{"name":"幸浦","operator":"横浜シーサイドライン","line":"金沢シーサイドライン","lat":35.358395,"lng":139.64369,"yearly":{"2018":5748,"2019":5617,"2020":4794,"2021":4982,"2022":5203,"2023":5243}},{"name":"海の公園柴口","operator":"横浜シーサイドライン","line":"金沢シーサイドライン","lat":35.34212,"lng":139.63591000000002,"yearly":{"2018":2112,"2019":2091,"2020":1810,"2021":2116,"2022":2274,"2023":2397}},{"name":"並木北","operator":"横浜シーサイドライン","line":"金沢シーサイドライン","lat":35.372015000000005,"lng":139.64273,"yearly":{"2018":3598,"2019":3582,"2020":3116,"2021":3402,"2022":3721,"2023":4004}},{"name":"鳥浜","operator":"横浜シーサイドライン","line":"金沢シーサイドライン","lat":35.37718,"lng":139.6418,"yearly":{"2018":6792,"2019":6810,"2020":8886,"2021":8866,"2022":9111,"2023":9249}},{"name":"金沢八景","operator":"横浜シーサイドライン","line":"金沢シーサイドライン","lat":35.3316060390625,"lng":139.62073481510424,"yearly":{"2018":15806,"2019":16044,"2020":15102,"2021":17222,"2022":18705,"2023":19975}},{"name":"並木中央","operator":"横浜シーサイドライン","line":"金沢シーサイドライン","lat":35.365449999999996,"lng":139.642985,"yearly":{"2018":5194,"2019":5265,"2020":4360,"2021":4704,"2022":4954,"2023":5074}},{"name":"新杉田","operator":"横浜シーサイドライン","line":"金沢シーサイドライン","lat":35.38571,"lng":139.620745,"yearly":{"2018":33976,"2019":33368,"2020":28492,"2021":29788,"2022":31236,"2023":32436}},{"name":"海の公園南口","operator":"横浜シーサイドライン","line":"金沢シーサイドライン","lat":35.337199999999996,"lng":139.63214,"yearly":{"2018":1622,"2019":1618,"2020":1450,"2021":1624,"2022":1821,"2023":1912}},{"name":"南部市場","operator":"横浜シーサイドライン","line":"金沢シーサイドライン","lat":35.380185,"lng":139.633205,"yearly":{"2018":2796,"2019":3044,"2020":3714,"2021":4098,"2022":4233,"2023":4440}},{"name":"福浦","operator":"横浜シーサイドライン","line":"金沢シーサイドライン","lat":35.34961,"lng":139.64853499999998,"yearly":{"2018":4074,"2019":4154,"2020":3590,"2021":3698,"2022":3812,"2023":3929}},{"name":"市大医学部","operator":"横浜シーサイドライン","line":"金沢シーサイドライン","lat":35.343905,"lng":139.65013,"yearly":{"2018":11364,"2019":11397,"2020":8970,"2021":9338,"2022":9809,"2023":10691}},{"name":"柳川","operator":"岡山電気軌道","line":"清輝橋線","lat":34.66554,"lng":133.92533,"yearly":{"2018":0,"2019":0,"2020":0,"2021":0,"2022":0,"2023":0}},{"name":"田町","operator":"岡山電気軌道","line":"清輝橋線","lat":34.66077,"lng":133.92633,"yearly":{"2018":122,"2019":175,"2020":175,"2021":123,"2022":123,"2023":123}},{"name":"郵便局前","operator":"岡山電気軌道","line":"清輝橋線","lat":34.662745,"lng":133.92632500000002,"yearly":{"2018":551,"2019":548,"2020":548,"2021":409,"2022":409,"2023":409}},{"name":"新西大寺町筋","operator":"岡山電気軌道","line":"清輝橋線","lat":34.65872,"lng":133.92633,"yearly":{"2018":155,"2019":164,"2020":164,"2021":113,"2022":113,"2023":113}},{"name":"大雲寺前","operator":"岡山電気軌道","line":"清輝橋線","lat":34.656615,"lng":133.92632,"yearly":{"2018":158,"2019":150,"2020":150,"2021":87,"2022":87,"2023":87}},{"name":"清輝橋","operator":"岡山電気軌道","line":"清輝橋線","lat":34.651735,"lng":133.925855,"yearly":{"2018":646,"2019":653,"2020":653,"2021":559,"2022":559,"2023":559}},{"name":"西川緑道公園","operator":"岡山電気軌道","line":"東山本線","lat":34.66554,"lng":133.92328500000002,"yearly":{"2018":406,"2019":389,"2020":389,"2021":238,"2022":238,"2023":238}},{"name":"岡山駅前","operator":"岡山電気軌道","line":"東山本線","lat":34.66551,"lng":133.91968,"yearly":{"2018":7498,"2019":7281,"2020":7281,"2021":5287,"2022":5287,"2023":5287}},{"name":"西大寺町・岡山芸術創造劇場ハレノワ前","operator":"岡山電気軌道","line":"東山本線","lat":34.65865,"lng":133.93057499999998,"yearly":{"2018":444,"2019":536,"2020":536,"2021":394,"2022":394,"2023":394}},{"name":"東山・おかでんミュージアム","operator":"岡山電気軌道","line":"東山本線","lat":34.65618,"lng":133.94298,"yearly":{"2018":2920,"2019":2796,"2020":2796,"2021":2315,"2022":2315,"2023":2315}},{"name":"柳川","operator":"岡山電気軌道","line":"東山本線","lat":34.66554,"lng":133.92533,"yearly":{"2018":482,"2019":470,"2020":470,"2021":364,"2022":364,"2023":364}},{"name":"県庁通り","operator":"岡山電気軌道","line":"東山本線","lat":34.66267499999999,"lng":133.93050499999998,"yearly":{"2018":1948,"2019":1826,"2020":1826,"2021":1475,"2022":1475,"2023":1475}},{"name":"門田屋敷","operator":"岡山電気軌道","line":"東山本線","lat":34.656175000000005,"lng":133.93899,"yearly":{"2018":623,"2019":596,"2020":596,"2021":455,"2022":455,"2023":455}},{"name":"城下","operator":"岡山電気軌道","line":"東山本線","lat":34.665565,"lng":133.92976499999997,"yearly":{"2018":2238,"2019":2209,"2020":2209,"2021":1185,"2022":1185,"2023":1185}},{"name":"中納言","operator":"岡山電気軌道","line":"東山本線","lat":34.657505,"lng":133.937565,"yearly":{"2018":308,"2019":302,"2020":302,"2021":228,"2022":228,"2023":228}},{"name":"小橋","operator":"岡山電気軌道","line":"東山本線","lat":34.65763,"lng":133.93659,"yearly":{"2018":202,"2019":201,"2020":201,"2021":140,"2022":140,"2023":140}},{"name":"壺川","operator":"沖縄都市モノレール","line":"沖縄都市モノレール線","lat":26.205785,"lng":127.67838,"yearly":{"2018":4178,"2019":4151,"2020":2556,"2021":2704,"2022":3588,"2023":4115}},{"name":"牧志","operator":"沖縄都市モノレール","line":"沖縄都市モノレール線","lat":26.217115,"lng":127.69256,"yearly":{"2018":7298,"2019":6918,"2020":2582,"2021":2849,"2022":5134,"2023":6521}},{"name":"安里","operator":"沖縄都市モノレール","line":"沖縄都市モノレール線","lat":26.216745,"lng":127.69573,"yearly":{"2018":4480,"2019":4684,"2020":2853,"2021":3090,"2022":4266,"2023":4813}},{"name":"県庁前","operator":"沖縄都市モノレール","line":"沖縄都市モノレール線","lat":26.21439,"lng":127.679315,"yearly":{"2018":14628,"2019":14242,"2020":7841,"2021":8230,"2022":11644,"2023":13489}},{"name":"美栄橋","operator":"沖縄都市モノレール","line":"沖縄都市モノレール線","lat":26.219160000000002,"lng":127.68442,"yearly":{"2018":6405,"2019":6394,"2020":3270,"2021":3442,"2022":5213,"2023":6662}},{"name":"旭橋","operator":"沖縄都市モノレール","line":"沖縄都市モノレール線","lat":26.21195,"lng":127.67548,"yearly":{"2018":7867,"2019":8749,"2020":4492,"2021":4906,"2022":7388,"2023":8796}},{"name":"儀保","operator":"沖縄都市モノレール","line":"沖縄都市モノレール線","lat":26.224494999999997,"lng":127.719295,"yearly":{"2018":3294,"2019":2973,"2020":1680,"2021":1713,"2022":2115,"2023":2347}},{"name":"那覇空港","operator":"沖縄都市モノレール","line":"沖縄都市モノレール線","lat":26.20666,"lng":127.652285,"yearly":{"2018":13702,"2019":14008,"2020":5102,"2021":5979,"2022":11725,"2023":14203}},{"name":"首里","operator":"沖縄都市モノレール","line":"沖縄都市モノレール線","lat":26.219175478260873,"lng":127.72555795652175,"yearly":{"2018":7375,"2019":6715,"2020":3178,"2021":3241,"2022":4326,"2023":5031}},{"name":"おもろまち","operator":"沖縄都市モノレール","line":"沖縄都市モノレール線","lat":26.222659999999998,"lng":127.69848,"yearly":{"2018":11755,"2019":11586,"2020":6370,"2021":6709,"2022":9185,"2023":10452}},{"name":"市立病院前","operator":"沖縄都市モノレール","line":"沖縄都市モノレール線","lat":26.227335,"lng":127.71027000000001,"yearly":{"2018":1826,"2019":1897,"2020":1357,"2021":1389,"2022":1605,"2023":1861}},{"name":"小禄","operator":"沖縄都市モノレール","line":"沖縄都市モノレール線","lat":26.196550000000002,"lng":127.66703000000001,"yearly":{"2018":7770,"2019":7707,"2020":2654,"2021":4959,"2022":6427,"2023":7381}},{"name":"赤嶺","operator":"沖縄都市モノレール","line":"沖縄都市モノレール線","lat":26.193265,"lng":127.660665,"yearly":{"2018":4824,"2019":4841,"2020":2799,"2021":2834,"2022":3903,"2023":4773}},{"name":"奥武山公園","operator":"沖縄都市モノレール","line":"沖縄都市モノレール線","lat":26.200654999999998,"lng":127.67524,"yearly":{"2018":4215,"2019":4438,"2020":2498,"2021":2617,"2022":3511,"2023":4144}},{"name":"養鱒公園","operator":"会津鉄道","line":"会津線","lat":37.224515,"lng":139.84181999999998,"yearly":{"2018":18,"2019":18,"2020":9,"2021":17,"2022":20,"2023":22}},{"name":"七ヶ岳登山口","operator":"会津鉄道","line":"会津線","lat":37.12418,"lng":139.71738333333332,"yearly":{"2018":8,"2019":9,"2020":3,"2021":4,"2022":6,"2023":8}},{"name":"湯野上温泉","operator":"会津鉄道","line":"会津線","lat":37.304035,"lng":139.895185,"yearly":{"2018":216,"2019":236,"2020":48,"2021":100,"2022":145,"2023":244}},{"name":"芦ノ牧温泉","operator":"会津鉄道","line":"会津線","lat":37.39541,"lng":139.932245,"yearly":{"2018":160,"2019":158,"2020":79,"2021":82,"2022":82,"2023":143}},{"name":"南若松","operator":"会津鉄道","line":"会津線","lat":37.4590375,"lng":139.9144475,"yearly":{"2018":38,"2019":37,"2020":32,"2021":33,"2022":35,"2023":33}},{"name":"田島高校前","operator":"会津鉄道","line":"会津線","lat":37.209555,"lng":139.80079,"yearly":{"2018":136,"2019":118,"2020":44,"2021":85,"2022":80,"2023":89}},{"name":"会津荒海","operator":"会津鉄道","line":"会津線","lat":37.153306666666666,"lng":139.73369,"yearly":{"2018":47,"2019":46,"2020":19,"2021":49,"2022":50,"2023":47}},{"name":"ふるさと公園","operator":"会津鉄道","line":"会津線","lat":37.24327,"lng":139.859025,"yearly":{"2018":38,"2019":35,"2020":14,"2021":33,"2022":32,"2023":48}},{"name":"中荒井","operator":"会津鉄道","line":"会津線","lat":37.180234999999996,"lng":139.750935,"yearly":{"2018":19,"2019":12,"2020":4,"2021":8,"2022":6,"2023":8}},{"name":"会津下郷","operator":"会津鉄道","line":"会津線","lat":37.255175,"lng":139.86494499999998,"yearly":{"2018":174,"2019":141,"2020":54,"2021":108,"2022":90,"2023":72}},{"name":"門田","operator":"会津鉄道","line":"会津線","lat":37.44251666666667,"lng":139.91378,"yearly":{"2018":2,"2019":2,"2020":2,"2021":2,"2022":4,"2023":2}},{"name":"塔のへつり","operator":"会津鉄道","line":"会津線","lat":37.274575,"lng":139.9015,"yearly":{"2018":66,"2019":55,"2020":15,"2021":23,"2022":33,"2023":50}},{"name":"会津田島","operator":"会津鉄道","line":"会津線","lat":37.203265,"lng":139.77431,"yearly":{"2018":603,"2019":561,"2020":187,"2021":430,"2022":460,"2023":504}},{"name":"あまや","operator":"会津鉄道","line":"会津線","lat":37.417210000000004,"lng":139.91759666666667,"yearly":{"2018":10,"2019":12,"2020":8,"2021":8,"2022":6,"2023":6}},{"name":"会津山村道場","operator":"会津鉄道","line":"会津線","lat":37.1442,"lng":139.73176,"yearly":{"2018":16,"2019":7,"2020":2,"2021":6,"2022":6,"2023":2}},{"name":"芦ノ牧温泉南","operator":"会津鉄道","line":"会津線","lat":37.334585000000004,"lng":139.918655,"yearly":{"2018":11,"2019":10,"2020":5,"2021":10,"2022":10,"2023":6}},{"name":"大川ダム公園","operator":"会津鉄道","line":"会津線","lat":37.34682,"lng":139.920775,"yearly":{"2018":3,"2019":2,"2020":1,"2021":0,"2022":2,"2023":2}},{"name":"会津長野","operator":"会津鉄道","line":"会津線","lat":37.2153,"lng":139.823845,"yearly":{"2018":15,"2019":14,"2020":9,"2021":13,"2022":18,"2023":16}},{"name":"弥五島","operator":"会津鉄道","line":"会津線","lat":37.26634,"lng":139.88997999999998,"yearly":{"2018":59,"2019":55,"2020":25,"2021":48,"2022":37,"2023":31}},{"name":"西若松","operator":"会津鉄道","line":"会津線","lat":37.48608333333333,"lng":139.91416,"yearly":{"2018":1739,"2019":0,"2020":0,"2021":0,"2022":0,"2023":450}},{"name":"会津高原尾瀬口","operator":"会津鉄道","line":"会津線","lat":37.09002666666667,"lng":139.70512333333332,"yearly":{"2018":551,"2019":0,"2020":0,"2021":0,"2022":0,"2023":0}},{"name":"岳南原田","operator":"岳南電車","line":"岳南鉄道線","lat":35.16609,"lng":138.7046,"yearly":{"2018":266,"2019":251,"2020":251,"2021":210,"2022":210,"2023":237}},{"name":"須津","operator":"岳南電車","line":"岳南鉄道線","lat":35.160470000000004,"lng":138.73392,"yearly":{"2018":158,"2019":163,"2020":163,"2021":167,"2022":167,"2023":182}},{"name":"ジヤトコ前","operator":"岳南電車","line":"岳南鉄道線","lat":35.157759999999996,"lng":138.69004,"yearly":{"2018":118,"2019":124,"2020":124,"2021":150,"2022":150,"2023":167}},{"name":"比奈","operator":"岳南電車","line":"岳南鉄道線","lat":35.16148,"lng":138.71362499999998,"yearly":{"2018":142,"2019":122,"2020":122,"2021":95,"2022":95,"2023":113}},{"name":"岳南富士岡","operator":"岳南電車","line":"岳南鉄道線","lat":35.16095,"lng":138.72339,"yearly":{"2018":321,"2019":337,"2020":337,"2021":280,"2022":280,"2023":254}},{"name":"吉原","operator":"岳南電車","line":"岳南鉄道線","lat":35.14444,"lng":138.701235,"yearly":{"2018":2015,"2019":1871,"2020":1871,"2021":1600,"2022":1600,"2023":1711}},{"name":"吉原本町","operator":"岳南電車","line":"岳南鉄道線","lat":35.16077,"lng":138.68973,"yearly":{"2018":1073,"2019":971,"2020":971,"2021":830,"2022":830,"2023":826}},{"name":"岳南江尾","operator":"岳南電車","line":"岳南鉄道線","lat":35.155244999999994,"lng":138.75182999999998,"yearly":{"2018":173,"2019":167,"2020":167,"2021":160,"2022":160,"2023":167}},{"name":"本吉原","operator":"岳南電車","line":"岳南鉄道線","lat":35.16197,"lng":138.69281,"yearly":{"2018":354,"2019":318,"2020":318,"2021":260,"2022":260,"2023":285}},{"name":"神谷","operator":"岳南電車","line":"岳南鉄道線","lat":35.160979999999995,"lng":138.74302,"yearly":{"2018":125,"2019":130,"2020":130,"2021":130,"2022":130,"2023":111}},{"name":"基山","operator":"甘木鉄道","line":"甘木線","lat":33.421282000000005,"lng":130.532294,"yearly":{"2018":826,"2019":841,"2020":598,"2021":707,"2022":752,"2023":720}},{"name":"松崎","operator":"甘木鉄道","line":"甘木線","lat":33.399735,"lng":130.582105,"yearly":{"2018":355,"2019":330,"2020":225,"2021":247,"2022":233,"2023":260}},{"name":"大板井","operator":"甘木鉄道","line":"甘木線","lat":33.3985,"lng":130.561085,"yearly":{"2018":60,"2019":70,"2020":40,"2021":43,"2022":56,"2023":55}},{"name":"高田","operator":"甘木鉄道","line":"甘木線","lat":33.414204999999995,"lng":130.63402000000002,"yearly":{"2018":73,"2019":67,"2020":50,"2021":52,"2022":66,"2023":63}},{"name":"小郡","operator":"甘木鉄道","line":"甘木線","lat":33.39748,"lng":130.55316499999998,"yearly":{"2018":1043,"2019":1021,"2020":790,"2021":867,"2022":942,"2023":995}},{"name":"立野","operator":"甘木鉄道","line":"甘木線","lat":33.41255,"lng":130.53928333333332,"yearly":{"2018":78,"2019":112,"2020":101,"2021":119,"2022":114,"2023":108}},{"name":"今隈","operator":"甘木鉄道","line":"甘木線","lat":33.404145,"lng":130.594275,"yearly":{"2018":113,"2019":118,"2020":114,"2021":119,"2022":146,"2023":161}},{"name":"西太刀洗","operator":"甘木鉄道","line":"甘木線","lat":33.407846666666664,"lng":130.59924333333333,"yearly":{"2018":183,"2019":184,"2020":135,"2021":140,"2022":143,"2023":159}},{"name":"山隈","operator":"甘木鉄道","line":"甘木線","lat":33.414055000000005,"lng":130.61007,"yearly":{"2018":226,"2019":228,"2020":163,"2021":160,"2022":179,"2023":184}},{"name":"甘木","operator":"甘木鉄道","line":"甘木線","lat":33.418943333333324,"lng":130.65284,"yearly":{"2018":685,"2019":695,"2020":498,"2021":567,"2022":650,"2023":685}},{"name":"太刀洗","operator":"甘木鉄道","line":"甘木線","lat":33.413925,"lng":130.618875,"yearly":{"2018":234,"2019":260,"2020":190,"2021":185,"2022":258,"2023":261}},{"name":"大宝","operator":"関東鉄道","line":"常総線","lat":36.20316,"lng":139.97019,"yearly":{"2018":96,"2019":105,"2020":74,"2021":90,"2022":90,"2023":105}},{"name":"黒子","operator":"関東鉄道","line":"常総線","lat":36.2472,"lng":139.97500000000002,"yearly":{"2018":181,"2019":168,"2020":113,"2021":116,"2022":130,"2023":167}},{"name":"下館","operator":"関東鉄道","line":"常総線","lat":36.303865,"lng":139.978205,"yearly":{"2018":8549,"2019":0,"2020":0,"2021":0,"2022":0,"2023":0}},{"name":"騰波ノ江","operator":"関東鉄道","line":"常総線","lat":36.22323,"lng":139.97628500000002,"yearly":{"2018":69,"2019":67,"2020":53,"2021":69,"2022":77,"2023":72}},{"name":"下妻","operator":"関東鉄道","line":"常総線","lat":36.182285,"lng":139.96448,"yearly":{"2018":1825,"2019":1845,"2020":1321,"2021":1477,"2022":1631,"2023":1758}},{"name":"大田郷","operator":"関東鉄道","line":"常総線","lat":36.27827,"lng":139.959715,"yearly":{"2018":338,"2019":337,"2020":264,"2021":311,"2022":328,"2023":330}},{"name":"中妻","operator":"関東鉄道","line":"常総線","lat":36.047275,"lng":139.990705,"yearly":{"2018":223,"2019":209,"2020":153,"2021":174,"2022":189,"2023":194}},{"name":"寺原","operator":"関東鉄道","line":"常総線","lat":35.91172,"lng":140.054805,"yearly":{"2018":1942,"2019":2018,"2020":1484,"2021":1512,"2022":1672,"2023":1869}},{"name":"宗道","operator":"関東鉄道","line":"常総線","lat":36.153620000000004,"lng":139.97059000000002,"yearly":{"2018":237,"2019":213,"2020":130,"2021":164,"2022":193,"2023":191}},{"name":"戸頭","operator":"関東鉄道","line":"常総線","lat":35.929365000000004,"lng":140.0143,"yearly":{"2018":4372,"2019":4347,"2020":3132,"2021":3454,"2022":4662,"2023":4951}},{"name":"取手","operator":"関東鉄道","line":"常総線","lat":35.897385,"lng":140.06384,"yearly":{"2018":11506,"2019":11465,"2020":8477,"2021":9190,"2022":10084,"2023":10712}},{"name":"北水海道","operator":"関東鉄道","line":"常総線","lat":36.03209,"lng":139.992835,"yearly":{"2018":473,"2019":505,"2020":397,"2021":384,"2022":413,"2023":435}},{"name":"石下","operator":"関東鉄道","line":"常総線","lat":36.117055,"lng":139.97438499999998,"yearly":{"2018":890,"2019":913,"2020":675,"2021":723,"2022":800,"2023":851}},{"name":"守谷","operator":"関東鉄道","line":"常総線","lat":35.95082,"lng":139.99213,"yearly":{"2018":14347,"2019":14638,"2020":10500,"2021":12040,"2022":14684,"2023":15858}},{"name":"新取手","operator":"関東鉄道","line":"常総線","lat":35.91766,"lng":140.04216,"yearly":{"2018":2008,"2019":1962,"2020":1543,"2021":1640,"2022":1731,"2023":1900}},{"name":"西取手","operator":"関東鉄道","line":"常総線","lat":35.908590000000004,"lng":140.059435,"yearly":{"2018":2498,"2019":2575,"2020":2129,"2021":2094,"2022":2236,"2023":2409}},{"name":"南守谷","operator":"関東鉄道","line":"常総線","lat":35.93409,"lng":140.00276000000002,"yearly":{"2018":2465,"2019":2495,"2020":1948,"2021":2104,"2022":2335,"2023":2541}},{"name":"稲戸井","operator":"関東鉄道","line":"常総線","lat":35.92612,"lng":140.02269,"yearly":{"2018":1442,"2019":1458,"2020":1181,"2021":1221,"2022":1293,"2023":1394}},{"name":"小絹","operator":"関東鉄道","line":"常総線","lat":35.981139999999996,"lng":139.98335,"yearly":{"2018":1961,"2019":2008,"2020":1383,"2021":1567,"2022":1738,"2023":1881}},{"name":"南石下","operator":"関東鉄道","line":"常総線","lat":36.102315000000004,"lng":139.97394500000001,"yearly":{"2018":297,"2019":317,"2020":250,"2021":281,"2022":289,"2023":312}},{"name":"三妻","operator":"関東鉄道","line":"常総線","lat":36.07346,"lng":139.98310500000002,"yearly":{"2018":226,"2019":205,"2020":154,"2021":159,"2022":186,"2023":252}},{"name":"玉村","operator":"関東鉄道","line":"常総線","lat":36.135515,"lng":139.969965,"yearly":{"2018":95,"2019":92,"2020":67,"2021":61,"2022":61,"2023":71}},{"name":"水海道","operator":"関東鉄道","line":"常総線","lat":36.01782,"lng":139.991395,"yearly":{"2018":3003,"2019":2969,"2020":2104,"2021":2384,"2022":2725,"2023":2903}},{"name":"新守谷","operator":"関東鉄道","line":"常総線","lat":35.966375,"lng":139.9857825,"yearly":{"2018":2770,"2019":3079,"2020":2549,"2021":3004,"2022":3456,"2023":3824}},{"name":"入地","operator":"関東鉄道","line":"竜ヶ崎線","lat":35.919015,"lng":140.15724,"yearly":{"2018":67,"2019":67,"2020":59,"2021":54,"2022":61,"2023":63}},{"name":"竜ヶ崎","operator":"関東鉄道","line":"竜ヶ崎線","lat":35.908555,"lng":140.17889,"yearly":{"2018":2253,"2019":2253,"2020":1559,"2021":1656,"2022":1894,"2023":1955}},{"name":"佐貫","operator":"関東鉄道","line":"竜ヶ崎線","lat":35.929405,"lng":140.13826,"yearly":{"2018":2305,"2019":2305,"2020":1515,"2021":1694,"2022":1945,"2023":2002}},{"name":"紀伊御坊","operator":"紀州鉄道","line":"紀州鉄道線","lat":33.894345,"lng":135.154765,"yearly":{"2018":50,"2019":60,"2020":75,"2021":40,"2022":45,"2023":37}},{"name":"御坊","operator":"紀州鉄道","line":"紀州鉄道線","lat":33.90762,"lng":135.15877,"yearly":{"2018":0,"2019":0,"2020":0,"2021":0,"2022":0,"2023":0}},{"name":"市役所前","operator":"紀州鉄道","line":"紀州鉄道線","lat":33.889605,"lng":135.15298,"yearly":{"2018":40,"2019":40,"2020":22,"2021":22,"2022":30,"2023":43}},{"name":"西御坊","operator":"紀州鉄道","line":"紀州鉄道線","lat":33.886345,"lng":135.152945,"yearly":{"2018":50,"2019":40,"2020":15,"2021":41,"2022":35,"2023":30}},{"name":"学門","operator":"紀州鉄道","line":"紀州鉄道線","lat":33.896245,"lng":135.15666,"yearly":{"2018":60,"2019":70,"2020":58,"2021":78,"2022":70,"2023":65}},{"name":"井の頭公園","operator":"京王電鉄","line":"井の頭線","lat":35.697295,"lng":139.58312,"yearly":{"2018":6921,"2019":6814,"2020":4902,"2021":5804,"2022":6320,"2023":6484}},{"name":"吉祥寺","operator":"京王電鉄","line":"井の頭線","lat":35.702290000000005,"lng":139.58031,"yearly":{"2018":148187,"2019":146901,"2020":98614,"2021":111397,"2022":122831,"2023":126063}},{"name":"三鷹台","operator":"京王電鉄","line":"井の頭線","lat":35.692049999999995,"lng":139.589295,"yearly":{"2018":22741,"2019":22072,"2020":15700,"2021":17225,"2022":18309,"2023":19085}},{"name":"駒場東大前","operator":"京王電鉄","line":"井の頭線","lat":35.65867,"lng":139.684075,"yearly":{"2018":39099,"2019":37851,"2020":18480,"2021":24995,"2022":31775,"2023":34257}},{"name":"神泉","operator":"京王電鉄","line":"井の頭線","lat":35.65718,"lng":139.6932525,"yearly":{"2018":11092,"2019":11328,"2020":8058,"2021":8920,"2022":10194,"2023":10870}},